[{
  "_id": {
    "$oid": "6216745c4a0d2cd7d5a80374"
  },
  "full_id": "n336237972",
  "name": "Starbucks",
  "lat": "18.78802",
  "long": "98.99366"
},{
  "_id": {
    "$oid": "6216745c4a0d2cd7d5a80375"
  },
  "full_id": "n822570109",
  "name": "Pordee",
  "lat": "18.78436",
  "long": "98.99647"
},{
  "_id": {
    "$oid": "6216745c4a0d2cd7d5a80376"
  },
  "full_id": "n907784572",
  "name": "Swensen's",
  "lat": "18.74305",
  "long": "98.96222"
},{
  "_id": {
    "$oid": "6216745c4a0d2cd7d5a80377"
  },
  "full_id": "n907784576",
  "name": "Black Canyon Coffee",
  "lat": "18.7431",
  "long": "98.9619"
},{
  "_id": {
    "$oid": "6216745c4a0d2cd7d5a80378"
  },
  "full_id": "n955952427",
  "name": "Hungry Crust",
  "lat": "18.78374",
  "long": "99.0163"
},{
  "_id": {
    "$oid": "6216745c4a0d2cd7d5a80379"
  },
  "full_id": "n1006843145",
  "name": "Cafe de Thaan Aoan",
  "lat": "18.78547",
  "long": "98.98848"
},{
  "_id": {
    "$oid": "6216745c4a0d2cd7d5a8037a"
  },
  "full_id": "n1014351915",
  "name": "Friendly Coffee",
  "lat": "18.80727",
  "long": "98.9709"
},{
  "_id": {
    "$oid": "6216745c4a0d2cd7d5a8037b"
  },
  "full_id": "n1058639339",
  "name": "Country Home",
  "lat": "18.6684",
  "long": "98.9137"
},{
  "_id": {
    "$oid": "6216745c4a0d2cd7d5a8037c"
  },
  "full_id": "n1074594027",
  "name": "Ember",
  "lat": "18.79836",
  "long": "98.96667"
},{
  "_id": {
    "$oid": "6216745c4a0d2cd7d5a8037d"
  },
  "full_id": "n1074595752",
  "name": "Mont Blanc",
  "lat": "18.79818",
  "long": "98.96686"
},{
  "_id": {
    "$oid": "6216745c4a0d2cd7d5a8037e"
  },
  "full_id": "n1074595753",
  "name": "Dolcetto' Cafe",
  "lat": "18.798",
  "long": "98.96681"
},{
  "_id": {
    "$oid": "6216745c4a0d2cd7d5a8037f"
  },
  "full_id": "n1093720093",
  "name": "Coffee Time",
  "lat": "18.76621",
  "long": "99.08301"
},{
  "_id": {
    "$oid": "6216745c4a0d2cd7d5a80380"
  },
  "full_id": "n1101287088",
  "name": "Wawee",
  "lat": "18.78103",
  "long": "98.99794"
},{
  "_id": {
    "$oid": "6216745c4a0d2cd7d5a80381"
  },
  "full_id": "n1101287698",
  "name": "Cafe de L'Amour",
  "lat": "18.78105",
  "long": "99.00068"
},{
  "_id": {
    "$oid": "6216745c4a0d2cd7d5a80382"
  },
  "full_id": "n1101288715",
  "name": "Starbucks",
  "lat": "18.78381",
  "long": "99.00012"
},{
  "_id": {
    "$oid": "6216745c4a0d2cd7d5a80383"
  },
  "full_id": "n1107234875",
  "name": "Coffee Bull",
  "lat": "18.78557",
  "long": "98.9876"
},{
  "_id": {
    "$oid": "6216745c4a0d2cd7d5a80384"
  },
  "full_id": "n1127592858",
  "name": "Cofésta",
  "lat": "18.7996",
  "long": "98.96765"
},{
  "_id": {
    "$oid": "6216745c4a0d2cd7d5a80385"
  },
  "full_id": "n1127593603",
  "name": "Doi Tung",
  "lat": "18.80001",
  "long": "98.96723"
},{
  "_id": {
    "$oid": "6216745c4a0d2cd7d5a80386"
  },
  "full_id": "n1127593959",
  "name": "Starbucks",
  "lat": "18.7976",
  "long": "98.96673"
},{
  "_id": {
    "$oid": "6216745c4a0d2cd7d5a80387"
  },
  "full_id": "n1129280654",
  "name": "Our House Coffee Shop",
  "lat": "18.79455",
  "long": "98.99341"
},{
  "_id": {
    "$oid": "6216745c4a0d2cd7d5a80388"
  },
  "full_id": "n1133608908",
  "name": "Coffee Bar",
  "lat": "18.791",
  "long": "98.99147"
},{
  "_id": {
    "$oid": "6216745c4a0d2cd7d5a80389"
  },
  "full_id": "n1133610755",
  "name": "Lucky Coffee",
  "lat": "18.79187",
  "long": "98.99152"
},{
  "_id": {
    "$oid": "6216745c4a0d2cd7d5a8038a"
  },
  "full_id": "n1166342189",
  "name": "K-Coffee",
  "lat": "18.80166",
  "long": "99.01717"
},{
  "_id": {
    "$oid": "6216745c4a0d2cd7d5a8038b"
  },
  "full_id": "n1169723115",
  "name": "Highland Agricultural Research Stn. Coffee Shop",
  "lat": "18.83874",
  "long": "98.89653"
},{
  "_id": {
    "$oid": "6216745c4a0d2cd7d5a8038c"
  },
  "full_id": "n1173899407",
  "name": "Sweet Sarapee",
  "lat": "18.76812",
  "long": "99.00589"
},{
  "_id": {
    "$oid": "6216745c4a0d2cd7d5a8038d"
  },
  "full_id": "n1173899412",
  "name": "Mata Coffee",
  "lat": "18.76829",
  "long": "99.0057"
},{
  "_id": {
    "$oid": "6216745c4a0d2cd7d5a8038e"
  },
  "full_id": "n1173899486",
  "name": "Miracle Coffee",
  "lat": "18.76855",
  "long": "99.00627"
},{
  "_id": {
    "$oid": "6216745c4a0d2cd7d5a8038f"
  },
  "full_id": "n1314781606",
  "name": "Ma Che're",
  "lat": "18.77382",
  "long": "99.04159"
},{
  "_id": {
    "$oid": "6216745c4a0d2cd7d5a80390"
  },
  "full_id": "n1361121238",
  "name": "Twin Cafe",
  "lat": "18.76687",
  "long": "99.00502"
},{
  "_id": {
    "$oid": "6216745c4a0d2cd7d5a80391"
  },
  "full_id": "n1368674790",
  "name": "กาแฟปางขอน",
  "lat": "18.77348",
  "long": "98.999"
},{
  "_id": {
    "$oid": "6216745c4a0d2cd7d5a80392"
  },
  "full_id": "n1377321248",
  "name": "บ้านแยมโรล",
  "lat": "18.72204",
  "long": "99.02644"
},{
  "_id": {
    "$oid": "6216745c4a0d2cd7d5a80393"
  },
  "full_id": "n1381345475",
  "name": "Café Amazon",
  "lat": "18.76987",
  "long": "99.07153"
},{
  "_id": {
    "$oid": "6216745c4a0d2cd7d5a80394"
  },
  "full_id": "n1446804460",
  "name": "มิราเคิลกาแฟ",
  "lat": "18.77982",
  "long": "99.04402"
},{
  "_id": {
    "$oid": "6216745c4a0d2cd7d5a80395"
  },
  "full_id": "n1459660867",
  "name": "Art Bosang Coffee House",
  "lat": "18.76472",
  "long": "99.08164"
},{
  "_id": {
    "$oid": "6216745c4a0d2cd7d5a80396"
  },
  "full_id": "n1474870808",
  "name": "Ninety-Four Coffee",
  "lat": "18.76813",
  "long": "98.9683"
},{
  "_id": {
    "$oid": "6216745c4a0d2cd7d5a80397"
  },
  "full_id": "n1474871817",
  "name": "Ninety-Four Coffee",
  "lat": "18.76918",
  "long": "98.96832"
},{
  "_id": {
    "$oid": "6216745c4a0d2cd7d5a80398"
  },
  "full_id": "n1474872064",
  "name": "Caffe Ritazza",
  "lat": "18.76937",
  "long": "98.96833"
},{
  "_id": {
    "$oid": "6216745c4a0d2cd7d5a80399"
  },
  "full_id": "n1474872898",
  "name": "Black Canyon Coffee",
  "lat": "18.77039",
  "long": "98.96829"
},{
  "_id": {
    "$oid": "6216745c4a0d2cd7d5a8039a"
  },
  "full_id": "n1477503682",
  "name": "โรซาร์ เพลส",
  "lat": "18.78355",
  "long": "98.99669"
},{
  "_id": {
    "$oid": "6216745c4a0d2cd7d5a8039b"
  },
  "full_id": "n1477720119",
  "name": "Hawaiian Son",
  "lat": "18.78209",
  "long": "98.9945"
},{
  "_id": {
    "$oid": "6216745c4a0d2cd7d5a8039c"
  },
  "full_id": "n1477737616",
  "name": "Born 2",
  "lat": "18.78376",
  "long": "98.9958"
},{
  "_id": {
    "$oid": "6216745c4a0d2cd7d5a8039d"
  },
  "full_id": "n1491288310",
  "name": "Juice",
  "lat": "18.79106",
  "long": "98.99048"
},{
  "_id": {
    "$oid": "6216745c4a0d2cd7d5a8039e"
  },
  "full_id": "n1491288849",
  "name": "Chiang Mai Tea House",
  "lat": "18.79101",
  "long": "98.99024"
},{
  "_id": {
    "$oid": "6216745c4a0d2cd7d5a8039f"
  },
  "full_id": "n1491320808",
  "name": "City Cafe",
  "lat": "18.79037",
  "long": "98.99182"
},{
  "_id": {
    "$oid": "6216745c4a0d2cd7d5a803a0"
  },
  "full_id": "n1496929137",
  "name": "Indy Coffee",
  "lat": "18.75871",
  "long": "99.04746"
},{
  "_id": {
    "$oid": "6216745c4a0d2cd7d5a803a1"
  },
  "full_id": "n1517513409",
  "name": "32km Coffee Hill",
  "lat": "19.13297",
  "long": "98.70405"
},{
  "_id": {
    "$oid": "6216745c4a0d2cd7d5a803a2"
  },
  "full_id": "n1517514449",
  "name": "Le Vintage",
  "lat": "19.15268",
  "long": "98.69252"
},{
  "_id": {
    "$oid": "6216745c4a0d2cd7d5a803a3"
  },
  "full_id": "n1526074376",
  "name": "Raming Tea Rooms",
  "lat": "19.26057",
  "long": "98.91393"
},{
  "_id": {
    "$oid": "6216745c4a0d2cd7d5a803a4"
  },
  "full_id": "n1595585867",
  "name": "Java Coffee",
  "lat": "18.78784",
  "long": "98.99448"
},{
  "_id": {
    "$oid": "6216745c4a0d2cd7d5a803a5"
  },
  "full_id": "n1598984446",
  "name": "Wawee Coffee",
  "lat": "18.78786",
  "long": "98.99016"
},{
  "_id": {
    "$oid": "6216745c4a0d2cd7d5a803a6"
  },
  "full_id": "n1615247948",
  "name": "Fat Cat",
  "lat": "18.76287",
  "long": "98.99497"
},{
  "_id": {
    "$oid": "6216745c4a0d2cd7d5a803a7"
  },
  "full_id": "n1616053536",
  "name": "Swensen's",
  "lat": "18.79561",
  "long": "98.97611"
},{
  "_id": {
    "$oid": "6216745c4a0d2cd7d5a803a8"
  },
  "full_id": "n1618868154",
  "name": "กูดมอนิ่งเชียงใหม่",
  "lat": "18.7834",
  "long": "98.9853"
},{
  "_id": {
    "$oid": "6216745c4a0d2cd7d5a803a9"
  },
  "full_id": "n1618868156",
  "name": "Doi Chaang",
  "lat": "18.78238",
  "long": "98.98997"
},{
  "_id": {
    "$oid": "6216745c4a0d2cd7d5a803aa"
  },
  "full_id": "n1685453396",
  "name": "Arom D Shop",
  "lat": "18.77001",
  "long": "98.99877"
},{
  "_id": {
    "$oid": "6216745c4a0d2cd7d5a803ab"
  },
  "full_id": "n1796986984",
  "name": "Ming Muang",
  "lat": "18.79777",
  "long": "98.96664"
},{
  "_id": {
    "$oid": "6216745c4a0d2cd7d5a803ac"
  },
  "full_id": "n1796992462",
  "name": "Wawee Coffee",
  "lat": "18.79756",
  "long": "98.96704"
},{
  "_id": {
    "$oid": "6216745c4a0d2cd7d5a803ad"
  },
  "full_id": "n1796992465",
  "name": "Ninety-Four Coffee",
  "lat": "18.79774",
  "long": "98.96738"
},{
  "_id": {
    "$oid": "6216745c4a0d2cd7d5a803ae"
  },
  "full_id": "n1796992466",
  "name": "Aroma",
  "lat": "18.79772",
  "long": "98.96743"
},{
  "_id": {
    "$oid": "6216745c4a0d2cd7d5a803af"
  },
  "full_id": "n1797000716",
  "name": "9th Street",
  "lat": "18.79749",
  "long": "98.96823"
},{
  "_id": {
    "$oid": "6216745c4a0d2cd7d5a803b0"
  },
  "full_id": "n1797000726",
  "name": "Tea Tales",
  "lat": "18.79749",
  "long": "98.96835"
},{
  "_id": {
    "$oid": "6216745c4a0d2cd7d5a803b1"
  },
  "full_id": "n1797002637",
  "name": "Marble Arch",
  "lat": "18.79745",
  "long": "98.96837"
},{
  "_id": {
    "$oid": "6216745c4a0d2cd7d5a803b2"
  },
  "full_id": "n1797019229",
  "name": "O-B-One Coffee & Juice",
  "lat": "18.79732",
  "long": "98.97"
},{
  "_id": {
    "$oid": "6216745c4a0d2cd7d5a803b3"
  },
  "full_id": "n1797039541",
  "name": "Dejavu Cafe",
  "lat": "18.79674",
  "long": "98.96966"
},{
  "_id": {
    "$oid": "6216745c4a0d2cd7d5a803b4"
  },
  "full_id": "n1797049148",
  "name": "La Genoise",
  "lat": "18.79668",
  "long": "98.96703"
},{
  "_id": {
    "$oid": "6216745c4a0d2cd7d5a803b5"
  },
  "full_id": "n1819858250",
  "name": "ร้านกาแฟบ้านแม่มด",
  "lat": "19.21825",
  "long": "98.67071"
},{
  "_id": {
    "$oid": "6216745c4a0d2cd7d5a803b6"
  },
  "full_id": "n1819897327",
  "name": "Doi Chaang",
  "lat": "18.74224",
  "long": "99.00329"
},{
  "_id": {
    "$oid": "6216745c4a0d2cd7d5a803b7"
  },
  "full_id": "n1903665319",
  "name": "Doi Chaang Coffee",
  "lat": "18.77126",
  "long": "98.97642"
},{
  "_id": {
    "$oid": "6216745c4a0d2cd7d5a803b8"
  },
  "full_id": "n1974754623",
  "name": "Kaffee Bitte",
  "lat": "18.84868",
  "long": "98.95661"
},{
  "_id": {
    "$oid": "6216745c4a0d2cd7d5a803b9"
  },
  "full_id": "n2005925281",
  "name": "บ้านสวนกาแฟ",
  "lat": "18.75974",
  "long": "98.91379"
},{
  "_id": {
    "$oid": "6216745c4a0d2cd7d5a803ba"
  },
  "full_id": "n2005925282",
  "name": "พรีาว & พลีน",
  "lat": "18.7605",
  "long": "98.90499"
},{
  "_id": {
    "$oid": "6216745c4a0d2cd7d5a803bb"
  },
  "full_id": "n2039805560",
  "name": "Coffee Corner",
  "lat": "18.75717",
  "long": "99.04898"
},{
  "_id": {
    "$oid": "6216745c4a0d2cd7d5a803bc"
  },
  "full_id": "n2039957239",
  "name": "บ้านลุงหมี",
  "lat": "18.78835",
  "long": "98.98685"
},{
  "_id": {
    "$oid": "6216745c4a0d2cd7d5a803bd"
  },
  "full_id": "n2040022297",
  "name": "J. Ju Coffee",
  "lat": "18.78558",
  "long": "98.98999"
},{
  "_id": {
    "$oid": "6216745c4a0d2cd7d5a803be"
  },
  "full_id": "n2040042303",
  "name": "Juicy4U",
  "lat": "18.78508",
  "long": "98.99257"
},{
  "_id": {
    "$oid": "6216745c4a0d2cd7d5a803bf"
  },
  "full_id": "n2045679477",
  "name": "หมอกหลวง เชียงดาว",
  "lat": "19.38319",
  "long": "98.95002"
},{
  "_id": {
    "$oid": "6216745c4a0d2cd7d5a803c0"
  },
  "full_id": "n2055855117",
  "name": "Kopi-O Cafe",
  "lat": "18.78602",
  "long": "98.99269"
},{
  "_id": {
    "$oid": "6216745c4a0d2cd7d5a803c1"
  },
  "full_id": "n2071377908",
  "name": "คาเฟ่ อเมซอน",
  "lat": "19.35317",
  "long": "98.96398"
},{
  "_id": {
    "$oid": "6216745c4a0d2cd7d5a803c2"
  },
  "full_id": "n2074584720",
  "name": "Hugs Coffee",
  "lat": "20.02723",
  "long": "99.28518"
},{
  "_id": {
    "$oid": "6216745c4a0d2cd7d5a803c3"
  },
  "full_id": "n2082864508",
  "name": "Kissa Cafe",
  "lat": "18.7977",
  "long": "98.98952"
},{
  "_id": {
    "$oid": "6216745c4a0d2cd7d5a803c4"
  },
  "full_id": "n2085410597",
  "name": "โอชัวร์",
  "lat": "18.79556",
  "long": "98.953"
},{
  "_id": {
    "$oid": "6216745c4a0d2cd7d5a803c5"
  },
  "full_id": "n2085425699",
  "name": "เพลินคาเฟ่",
  "lat": "18.79569",
  "long": "98.953"
},{
  "_id": {
    "$oid": "6216745c4a0d2cd7d5a803c6"
  },
  "full_id": "n2085487654",
  "name": "Paper Spoon",
  "lat": "18.78089",
  "long": "98.95293"
},{
  "_id": {
    "$oid": "6216745c4a0d2cd7d5a803c7"
  },
  "full_id": "n2095788662",
  "name": "กลิ่นละมุน",
  "lat": "18.79626",
  "long": "99.03993"
},{
  "_id": {
    "$oid": "6216745c4a0d2cd7d5a803c8"
  },
  "full_id": "n2099411773",
  "name": "Cosmos Cafe",
  "lat": "18.79467",
  "long": "98.96613"
},{
  "_id": {
    "$oid": "6216745c4a0d2cd7d5a803c9"
  },
  "full_id": "n2099411789",
  "name": "Wawee Coffee",
  "lat": "18.79786",
  "long": "98.96461"
},{
  "_id": {
    "$oid": "6216745c4a0d2cd7d5a803ca"
  },
  "full_id": "n2104376722",
  "name": "Na Na Croissant and Coffee",
  "lat": "18.80408",
  "long": "98.97904"
},{
  "_id": {
    "$oid": "6216745c4a0d2cd7d5a803cb"
  },
  "full_id": "n2105726947",
  "name": "Ristr8to",
  "lat": "18.7991",
  "long": "98.96722"
},{
  "_id": {
    "$oid": "6216745c4a0d2cd7d5a803cc"
  },
  "full_id": "n2105737204",
  "name": "Hillkoff Coffee Sales & Service",
  "lat": "18.79845",
  "long": "98.98669"
},{
  "_id": {
    "$oid": "6216745c4a0d2cd7d5a803cd"
  },
  "full_id": "n2124797950",
  "name": "Sangdee",
  "lat": "18.79584",
  "long": "98.97146"
},{
  "_id": {
    "$oid": "6216745c4a0d2cd7d5a803ce"
  },
  "full_id": "n2187932054",
  "name": "Hom Groon Coffee",
  "lat": "18.7956",
  "long": "99.02999"
},{
  "_id": {
    "$oid": "6216745c4a0d2cd7d5a803cf"
  },
  "full_id": "n2341902528",
  "name": "Mochi",
  "lat": "18.76642",
  "long": "99.03772"
},{
  "_id": {
    "$oid": "6216745c4a0d2cd7d5a803d0"
  },
  "full_id": "n2341954681",
  "name": "Black Canyon Coffee",
  "lat": "18.76542",
  "long": "99.03736"
},{
  "_id": {
    "$oid": "6216745c4a0d2cd7d5a803d1"
  },
  "full_id": "n2341962163",
  "name": "MilkyWay",
  "lat": "18.76612",
  "long": "99.03785"
},{
  "_id": {
    "$oid": "6216745c4a0d2cd7d5a803d2"
  },
  "full_id": "n2341962164",
  "name": "Jellio",
  "lat": "18.76625",
  "long": "99.03787"
},{
  "_id": {
    "$oid": "6216745c4a0d2cd7d5a803d3"
  },
  "full_id": "n2404044286",
  "name": "Akha Ama La Fattoria",
  "lat": "18.78843",
  "long": "98.98326"
},{
  "_id": {
    "$oid": "6216745c4a0d2cd7d5a803d4"
  },
  "full_id": "n2414298003",
  "name": "Cafe de Sirin",
  "lat": "18.78721",
  "long": "98.99886"
},{
  "_id": {
    "$oid": "6216745c4a0d2cd7d5a803d5"
  },
  "full_id": "n2419667430",
  "name": "Rajdamnoen Coffee",
  "lat": "18.7882",
  "long": "98.98535"
},{
  "_id": {
    "$oid": "6216745c4a0d2cd7d5a803d6"
  },
  "full_id": "n2434773550",
  "name": "Au choix",
  "lat": "18.80195",
  "long": "98.95532"
},{
  "_id": {
    "$oid": "6216745c4a0d2cd7d5a803d7"
  },
  "full_id": "n2434777647",
  "name": "Him Tang",
  "lat": "18.80302",
  "long": "98.95415"
},{
  "_id": {
    "$oid": "6216745c4a0d2cd7d5a803d8"
  },
  "full_id": "n2434783251",
  "name": "กาแฟรัฐศาสตร์",
  "lat": "18.80366",
  "long": "98.95418"
},{
  "_id": {
    "$oid": "6216745c4a0d2cd7d5a803d9"
  },
  "full_id": "n2434783680",
  "name": "Smile Coffee",
  "lat": "18.79616",
  "long": "98.95247"
},{
  "_id": {
    "$oid": "6216745c4a0d2cd7d5a803da"
  },
  "full_id": "n2434785831",
  "name": "Double Click Cafe",
  "lat": "18.80368",
  "long": "98.953"
},{
  "_id": {
    "$oid": "6216745c4a0d2cd7d5a803db"
  },
  "full_id": "n2434787311",
  "name": "PAK Cafe",
  "lat": "18.80389",
  "long": "98.95232"
},{
  "_id": {
    "$oid": "6216745c4a0d2cd7d5a803dc"
  },
  "full_id": "n2434788491",
  "name": "ฝ้ายเบเกอรี่",
  "lat": "18.80171",
  "long": "98.95185"
},{
  "_id": {
    "$oid": "6216745c4a0d2cd7d5a803dd"
  },
  "full_id": "n2434791094",
  "name": "Kopi Gusto",
  "lat": "18.80159",
  "long": "98.95355"
},{
  "_id": {
    "$oid": "6216745c4a0d2cd7d5a803de"
  },
  "full_id": "n2434791424",
  "name": "C.M.U Bookstore Coffee",
  "lat": "18.80151",
  "long": "98.95281"
},{
  "_id": {
    "$oid": "6216745c4a0d2cd7d5a803df"
  },
  "full_id": "n2434791784",
  "name": "The Chalatte",
  "lat": "18.80195",
  "long": "98.95045"
},{
  "_id": {
    "$oid": "6216745c4a0d2cd7d5a803e0"
  },
  "full_id": "n2434793620",
  "name": "ฝ้ายเบเกอรี่",
  "lat": "18.79413",
  "long": "98.95711"
},{
  "_id": {
    "$oid": "6216745c4a0d2cd7d5a803e1"
  },
  "full_id": "n2442812998",
  "name": "Pacamara",
  "lat": "18.78835",
  "long": "98.98666"
},{
  "_id": {
    "$oid": "6216745c4a0d2cd7d5a803e2"
  },
  "full_id": "n2450538522",
  "name": "Doi Chaang",
  "lat": "18.8282",
  "long": "99.01203"
},{
  "_id": {
    "$oid": "6216745c4a0d2cd7d5a803e3"
  },
  "full_id": "n2465491441",
  "name": "Coffee Corner",
  "lat": "18.9083",
  "long": "99.25029"
},{
  "_id": {
    "$oid": "6216745c4a0d2cd7d5a803e4"
  },
  "full_id": "n2466333305",
  "name": "Coffee in Narrow",
  "lat": "18.78723",
  "long": "98.98979"
},{
  "_id": {
    "$oid": "6216745c4a0d2cd7d5a803e5"
  },
  "full_id": "n2488959596",
  "name": "ร้านกาแฟชมนกชมไม้",
  "lat": "18.8659",
  "long": "99.35571"
},{
  "_id": {
    "$oid": "6216745c4a0d2cd7d5a803e6"
  },
  "full_id": "n2494459527",
  "name": "Jack's Coffee & Bakery",
  "lat": "20.05849",
  "long": "99.36045"
},{
  "_id": {
    "$oid": "6216745c4a0d2cd7d5a803e7"
  },
  "full_id": "n2494631745",
  "name": "ไร่นท-ภูผา",
  "lat": "18.85478",
  "long": "98.75264"
},{
  "_id": {
    "$oid": "6216745c4a0d2cd7d5a803e8"
  },
  "full_id": "n2505598106",
  "name": "ไอเบอร์รี่",
  "lat": "18.79425",
  "long": "98.96893"
},{
  "_id": {
    "$oid": "6216745c4a0d2cd7d5a803e9"
  },
  "full_id": "n2517085338",
  "name": "Black Canyon",
  "lat": "18.82438",
  "long": "99.01384"
},{
  "_id": {
    "$oid": "6216745c4a0d2cd7d5a803ea"
  },
  "full_id": "n2520629646",
  "name": "เบนซ์ คาเฟ่",
  "lat": "18.79132",
  "long": "99.02714"
},{
  "_id": {
    "$oid": "6216745c4a0d2cd7d5a803eb"
  },
  "full_id": "n2523232243",
  "name": "Luvv Cafe",
  "lat": "18.79521",
  "long": "98.9678"
},{
  "_id": {
    "$oid": "6216745c4a0d2cd7d5a803ec"
  },
  "full_id": "n2527662833",
  "name": "Akha Ama",
  "lat": "18.80323",
  "long": "98.98002"
},{
  "_id": {
    "$oid": "6216745c4a0d2cd7d5a803ed"
  },
  "full_id": "n2530435333",
  "name": "ขนมหวาน",
  "lat": "18.80238",
  "long": "98.97939"
},{
  "_id": {
    "$oid": "6216745c4a0d2cd7d5a803ee"
  },
  "full_id": "n2531723595",
  "name": "Le Cafe Doisaket",
  "lat": "18.90601",
  "long": "99.13512"
},{
  "_id": {
    "$oid": "6216745c4a0d2cd7d5a803ef"
  },
  "full_id": "n2543122637",
  "name": "Nine One Coffee",
  "lat": "19.0449",
  "long": "99.34211"
},{
  "_id": {
    "$oid": "6216745c4a0d2cd7d5a803f0"
  },
  "full_id": "n2544996945",
  "name": "Food",
  "lat": "18.60487",
  "long": "98.79185"
},{
  "_id": {
    "$oid": "6216745c4a0d2cd7d5a803f1"
  },
  "full_id": "n2554099859",
  "name": "Sudsanan",
  "lat": "18.7994",
  "long": "98.9739"
},{
  "_id": {
    "$oid": "6216745c4a0d2cd7d5a803f2"
  },
  "full_id": "n2581625565",
  "name": "Game Online & Internet",
  "lat": "18.76658",
  "long": "99.08352"
},{
  "_id": {
    "$oid": "6216745c4a0d2cd7d5a803f3"
  },
  "full_id": "n2581627060",
  "name": "สันไร่กาแฟ",
  "lat": "18.75364",
  "long": "99.10167"
},{
  "_id": {
    "$oid": "6216745c4a0d2cd7d5a803f4"
  },
  "full_id": "n2582055354",
  "name": "กาแฟสด",
  "lat": "18.77038",
  "long": "99.08519"
},{
  "_id": {
    "$oid": "6216745c4a0d2cd7d5a803f5"
  },
  "full_id": "n2582060112",
  "name": "กาแฟสด อาหาร",
  "lat": "18.9168",
  "long": "98.99746"
},{
  "_id": {
    "$oid": "6216745c4a0d2cd7d5a803f6"
  },
  "full_id": "n2590185727",
  "name": "คำ-ม่อน",
  "lat": "18.7819",
  "long": "98.98076"
},{
  "_id": {
    "$oid": "6216745c4a0d2cd7d5a803f7"
  },
  "full_id": "n2590253491",
  "name": "เกียว ไอศครีมกะทิ",
  "lat": "18.87914",
  "long": "99.06098"
},{
  "_id": {
    "$oid": "6216745c4a0d2cd7d5a803f8"
  },
  "full_id": "n2597971867",
  "name": "Cafe Blanco",
  "lat": "18.78602",
  "long": "98.99862"
},{
  "_id": {
    "$oid": "6216745c4a0d2cd7d5a803f9"
  },
  "full_id": "n2598509572",
  "name": "Kaffe 151",
  "lat": "18.79081",
  "long": "98.98768"
},{
  "_id": {
    "$oid": "6216745c4a0d2cd7d5a803fa"
  },
  "full_id": "n2600941805",
  "name": "กลิณกาแฟ",
  "lat": "18.85174",
  "long": "99.01377"
},{
  "_id": {
    "$oid": "6216745c4a0d2cd7d5a803fb"
  },
  "full_id": "n2609583867",
  "name": "Latte Delight",
  "lat": "18.80928",
  "long": "98.96317"
},{
  "_id": {
    "$oid": "6216745c4a0d2cd7d5a803fc"
  },
  "full_id": "n2610694860",
  "name": "Cafe Long Do",
  "lat": "18.92202",
  "long": "98.99395"
},{
  "_id": {
    "$oid": "6216745c4a0d2cd7d5a803fd"
  },
  "full_id": "n2611231828",
  "name": "ไม้เฮือน๖๐",
  "lat": "18.93888",
  "long": "98.943"
},{
  "_id": {
    "$oid": "6216745c4a0d2cd7d5a803fe"
  },
  "full_id": "n2617030206",
  "name": "ร้านกาแฟ",
  "lat": "17.80021",
  "long": "98.3581"
},{
  "_id": {
    "$oid": "6216745c4a0d2cd7d5a803ff"
  },
  "full_id": "n2618230818",
  "name": "ร้านกาแฟ โรงเรียนอมก๋อยวิทยาคม",
  "lat": "17.79994",
  "long": "98.3576"
},{
  "_id": {
    "$oid": "6216745c4a0d2cd7d5a80400"
  },
  "full_id": "n2618260105",
  "name": "โจโจ้ อินเตอร์เน็ต",
  "lat": "17.79684",
  "long": "98.35723"
},{
  "_id": {
    "$oid": "6216745c4a0d2cd7d5a80401"
  },
  "full_id": "n2628382300",
  "name": "เฮือนคำปิน",
  "lat": "18.78415",
  "long": "98.99279"
},{
  "_id": {
    "$oid": "6216745c4a0d2cd7d5a80402"
  },
  "full_id": "n2631763471",
  "name": "ร้านกาแฟ ยู-โนกะ",
  "lat": "18.79899",
  "long": "99.24224"
},{
  "_id": {
    "$oid": "6216745c4a0d2cd7d5a80403"
  },
  "full_id": "n2633808687",
  "name": "Strawberry Fields Forever",
  "lat": "19.81432",
  "long": "99.11307"
},{
  "_id": {
    "$oid": "6216745c4a0d2cd7d5a80404"
  },
  "full_id": "n2641942618",
  "name": "Coffee Terminal",
  "lat": "18.89255",
  "long": "99.17243"
},{
  "_id": {
    "$oid": "6216745c4a0d2cd7d5a80405"
  },
  "full_id": "n2642156470",
  "name": "บ้านแม่กำปอง โฮมสเตย์",
  "lat": "18.86574",
  "long": "99.35351"
},{
  "_id": {
    "$oid": "6216745c4a0d2cd7d5a80406"
  },
  "full_id": "n2648382125",
  "name": "Wawee",
  "lat": "18.78939",
  "long": "99.00421"
},{
  "_id": {
    "$oid": "6216745c4a0d2cd7d5a80407"
  },
  "full_id": "n2648443313",
  "name": "เฮือนโบราณ ฮิมปิง",
  "lat": "18.77706",
  "long": "99.00761"
},{
  "_id": {
    "$oid": "6216745c4a0d2cd7d5a80408"
  },
  "full_id": "n2650709899",
  "name": "Club Diva",
  "lat": "18.78992",
  "long": "98.95606"
},{
  "_id": {
    "$oid": "6216745c4a0d2cd7d5a80409"
  },
  "full_id": "n2650769476",
  "name": "Yellow Bear Coffee",
  "lat": "18.79889",
  "long": "98.97125"
},{
  "_id": {
    "$oid": "6216745c4a0d2cd7d5a8040a"
  },
  "full_id": "n2652920111",
  "name": "Coffee 2 Days",
  "lat": "18.77975",
  "long": "98.99155"
},{
  "_id": {
    "$oid": "6216745c4a0d2cd7d5a8040b"
  },
  "full_id": "n2655145988",
  "name": "Bella Goose Coffee",
  "lat": "18.78125",
  "long": "98.999"
},{
  "_id": {
    "$oid": "6216745c4a0d2cd7d5a8040c"
  },
  "full_id": "n2655153486",
  "name": "Doi Chang",
  "lat": "18.78692",
  "long": "98.99884"
},{
  "_id": {
    "$oid": "6216745c4a0d2cd7d5a8040d"
  },
  "full_id": "n2655177035",
  "name": "Mr. K Coffee",
  "lat": "18.7833",
  "long": "98.99842"
},{
  "_id": {
    "$oid": "6216745c4a0d2cd7d5a8040e"
  },
  "full_id": "n2655180134",
  "name": "Cafe' de Siam",
  "lat": "18.784",
  "long": "98.99854"
},{
  "_id": {
    "$oid": "6216745c4a0d2cd7d5a8040f"
  },
  "full_id": "n2655193795",
  "name": "วิมล คาราโอเกะ",
  "lat": "18.78183",
  "long": "98.99856"
},{
  "_id": {
    "$oid": "6216745c4a0d2cd7d5a80410"
  },
  "full_id": "n2658260600",
  "name": "De Cassowary",
  "lat": "18.77743",
  "long": "98.98727"
},{
  "_id": {
    "$oid": "6216745c4a0d2cd7d5a80411"
  },
  "full_id": "n2660438580",
  "name": "Doi Chaang",
  "lat": "18.79464",
  "long": "98.96557"
},{
  "_id": {
    "$oid": "6216745c4a0d2cd7d5a80412"
  },
  "full_id": "n2660438583",
  "name": "Dude Cafe",
  "lat": "18.79626",
  "long": "98.96576"
},{
  "_id": {
    "$oid": "6216745c4a0d2cd7d5a80413"
  },
  "full_id": "n2661676325",
  "name": "Gateaux House",
  "lat": "18.78887",
  "long": "98.97309"
},{
  "_id": {
    "$oid": "6216745c4a0d2cd7d5a80414"
  },
  "full_id": "n2666702978",
  "name": "ร้านครึ่งทางโอเคมาร์ท",
  "lat": "19.20812",
  "long": "98.6707"
},{
  "_id": {
    "$oid": "6216745c4a0d2cd7d5a80415"
  },
  "full_id": "n2678552865",
  "name": "Im Cafe",
  "lat": "18.79588",
  "long": "99.00579"
},{
  "_id": {
    "$oid": "6216745c4a0d2cd7d5a80416"
  },
  "full_id": "n2682493524",
  "name": "เฮือนซาลาเปา",
  "lat": "18.80872",
  "long": "99.01262"
},{
  "_id": {
    "$oid": "6216745c4a0d2cd7d5a80417"
  },
  "full_id": "n2682539763",
  "name": "Walk Street Café",
  "lat": "18.80157",
  "long": "99.01054"
},{
  "_id": {
    "$oid": "6216745c4a0d2cd7d5a80418"
  },
  "full_id": "n2682577300",
  "name": "ฝ้ายเบเกอรี่",
  "lat": "18.82594",
  "long": "99.01189"
},{
  "_id": {
    "$oid": "6216745c4a0d2cd7d5a80419"
  },
  "full_id": "n2684247512",
  "name": "กาแฟสด อินทนนท์",
  "lat": "18.58374",
  "long": "98.8853"
},{
  "_id": {
    "$oid": "6216745c4a0d2cd7d5a8041a"
  },
  "full_id": "n2685071679",
  "name": "Inthanon Coffee",
  "lat": "18.54279",
  "long": "98.59156"
},{
  "_id": {
    "$oid": "6216745c4a0d2cd7d5a8041b"
  },
  "full_id": "n2685512392",
  "name": "Cup & Cake",
  "lat": "18.62976",
  "long": "98.89662"
},{
  "_id": {
    "$oid": "6216745c4a0d2cd7d5a8041c"
  },
  "full_id": "n2687048817",
  "name": "กาแฟดอยขุนแตะ",
  "lat": "18.43458",
  "long": "98.68542"
},{
  "_id": {
    "$oid": "6216745c4a0d2cd7d5a8041d"
  },
  "full_id": "n2716915567",
  "name": "The Coffee Club",
  "lat": "18.78791",
  "long": "98.99294"
},{
  "_id": {
    "$oid": "6216745c4a0d2cd7d5a8041e"
  },
  "full_id": "n2726518791",
  "name": "Bud's Ice Cream",
  "lat": "18.79723",
  "long": "99.0081"
},{
  "_id": {
    "$oid": "6216745c4a0d2cd7d5a8041f"
  },
  "full_id": "n2833437963",
  "name": "Chang-Kian Coffee",
  "lat": "18.82725",
  "long": "98.95442"
},{
  "_id": {
    "$oid": "6216745c4a0d2cd7d5a80420"
  },
  "full_id": "n2865694701",
  "name": "Sleepless",
  "lat": "18.80588",
  "long": "98.9881"
},{
  "_id": {
    "$oid": "6216745c4a0d2cd7d5a80421"
  },
  "full_id": "n2865846901",
  "name": "Coffee World",
  "lat": "18.80688",
  "long": "99.01812"
},{
  "_id": {
    "$oid": "6216745c4a0d2cd7d5a80422"
  },
  "full_id": "n2865847101",
  "name": "Pang Ping Café",
  "lat": "18.80676",
  "long": "99.01804"
},{
  "_id": {
    "$oid": "6216745c4a0d2cd7d5a80423"
  },
  "full_id": "n2865857601",
  "name": "Gloria Jean's Coffee",
  "lat": "18.8077",
  "long": "99.01821"
},{
  "_id": {
    "$oid": "6216745c4a0d2cd7d5a80424"
  },
  "full_id": "n2881830841",
  "name": "Tea Garden",
  "lat": "18.91737",
  "long": "98.91067"
},{
  "_id": {
    "$oid": "6216745c4a0d2cd7d5a80425"
  },
  "full_id": "n2922091901",
  "name": "Doqaholic Cafe",
  "lat": "18.8013",
  "long": "98.96743"
},{
  "_id": {
    "$oid": "6216745c4a0d2cd7d5a80426"
  },
  "full_id": "n2934994593",
  "name": "Vet Med Cafeteria",
  "lat": "18.75878",
  "long": "98.94052"
},{
  "_id": {
    "$oid": "6216745c4a0d2cd7d5a80427"
  },
  "full_id": "n2941835002",
  "name": "ฅนขายเป็ด",
  "lat": "18.7395",
  "long": "99.08137"
},{
  "_id": {
    "$oid": "6216745c4a0d2cd7d5a80428"
  },
  "full_id": "n2969701534",
  "name": "Camellia & Co.",
  "lat": "18.80118",
  "long": "98.9675"
},{
  "_id": {
    "$oid": "6216745c4a0d2cd7d5a80429"
  },
  "full_id": "n2984537933",
  "name": "Coffee Journey",
  "lat": "18.78567",
  "long": "99.00915"
},{
  "_id": {
    "$oid": "6216745c4a0d2cd7d5a8042a"
  },
  "full_id": "n3058738323",
  "name": "Beck's Cafe",
  "lat": "18.79802",
  "long": "98.97383"
},{
  "_id": {
    "$oid": "6216745c4a0d2cd7d5a8042b"
  },
  "full_id": "n3063226177",
  "name": "ที่นี่ ลีลาวดี",
  "lat": "18.8748",
  "long": "99.13625"
},{
  "_id": {
    "$oid": "6216745c4a0d2cd7d5a8042c"
  },
  "full_id": "n3081257253",
  "name": "Summit Cafe",
  "lat": "18.58796",
  "long": "98.48631"
},{
  "_id": {
    "$oid": "6216745c4a0d2cd7d5a8042d"
  },
  "full_id": "n3091942614",
  "name": "กาแฟรสนิยม",
  "lat": "18.80811",
  "long": "98.99505"
},{
  "_id": {
    "$oid": "6216745c4a0d2cd7d5a8042e"
  },
  "full_id": "n3103269529",
  "name": "Love Coffee",
  "lat": "18.7436",
  "long": "99.11949"
},{
  "_id": {
    "$oid": "6216745c4a0d2cd7d5a8042f"
  },
  "full_id": "n3106841846",
  "name": "Baa Baa Black Cafe",
  "lat": "18.91265",
  "long": "98.92912"
},{
  "_id": {
    "$oid": "6216745c4a0d2cd7d5a80430"
  },
  "full_id": "n3107256389",
  "name": "Café Amazon",
  "lat": "19.08258",
  "long": "98.93666"
},{
  "_id": {
    "$oid": "6216745c4a0d2cd7d5a80431"
  },
  "full_id": "n3112473832",
  "name": "Eden Cafe",
  "lat": "18.86591",
  "long": "99.15034"
},{
  "_id": {
    "$oid": "6216745c4a0d2cd7d5a80432"
  },
  "full_id": "n3116053111",
  "name": "Starbucks",
  "lat": "18.80649",
  "long": "99.01766"
},{
  "_id": {
    "$oid": "6216745c4a0d2cd7d5a80433"
  },
  "full_id": "n3121493939",
  "name": "Café Amazon",
  "lat": "18.67151",
  "long": "98.88793"
},{
  "_id": {
    "$oid": "6216745c4a0d2cd7d5a80434"
  },
  "full_id": "n3149195389",
  "name": "Cool Cafe",
  "lat": "18.90892",
  "long": "98.9477"
},{
  "_id": {
    "$oid": "6216745c4a0d2cd7d5a80435"
  },
  "full_id": "n3152478861",
  "name": "Coffee House",
  "lat": "18.79848",
  "long": "99.01756"
},{
  "_id": {
    "$oid": "6216745c4a0d2cd7d5a80436"
  },
  "full_id": "n3168260766",
  "name": "Librarista",
  "lat": "18.79846",
  "long": "98.96882"
},{
  "_id": {
    "$oid": "6216745c4a0d2cd7d5a80437"
  },
  "full_id": "n3174251462",
  "name": "Homm",
  "lat": "18.68786",
  "long": "98.94716"
},{
  "_id": {
    "$oid": "6216745c4a0d2cd7d5a80438"
  },
  "full_id": "n3174252561",
  "name": "Casa Shadé",
  "lat": "18.68733",
  "long": "98.94743"
},{
  "_id": {
    "$oid": "6216745c4a0d2cd7d5a80439"
  },
  "full_id": "n3180206861",
  "name": "I Love Ice Cream",
  "lat": "18.79887",
  "long": "99.02383"
},{
  "_id": {
    "$oid": "6216745c4a0d2cd7d5a8043a"
  },
  "full_id": "n3182220946",
  "name": "ฝ้ายเบเกอรี่",
  "lat": "18.80137",
  "long": "98.95017"
},{
  "_id": {
    "$oid": "6216745c4a0d2cd7d5a8043b"
  },
  "full_id": "n3182230621",
  "name": "Wawee Coffee",
  "lat": "18.79866",
  "long": "99.02392"
},{
  "_id": {
    "$oid": "6216745c4a0d2cd7d5a8043c"
  },
  "full_id": "n3184594339",
  "name": "Café Amazon",
  "lat": "18.80889",
  "long": "99.0119"
},{
  "_id": {
    "$oid": "6216745c4a0d2cd7d5a8043d"
  },
  "full_id": "n3184594340",
  "name": "ใบทอง บวยเลิฟ",
  "lat": "18.8467",
  "long": "99.07953"
},{
  "_id": {
    "$oid": "6216745c4a0d2cd7d5a8043e"
  },
  "full_id": "n3195504332",
  "name": "มิ่งมิตร กาแฟ",
  "lat": "18.81221",
  "long": "98.99119"
},{
  "_id": {
    "$oid": "6216745c4a0d2cd7d5a8043f"
  },
  "full_id": "n3195504333",
  "name": "The Baristro",
  "lat": "18.80786",
  "long": "98.99494"
},{
  "_id": {
    "$oid": "6216745c4a0d2cd7d5a80440"
  },
  "full_id": "n3197689690",
  "name": "Tree Sis Coffee",
  "lat": "18.78941",
  "long": "98.98283"
},{
  "_id": {
    "$oid": "6216745c4a0d2cd7d5a80441"
  },
  "full_id": "n3206107861",
  "name": "Sidamo Coffee",
  "lat": "18.82261",
  "long": "98.96569"
},{
  "_id": {
    "$oid": "6216745c4a0d2cd7d5a80442"
  },
  "full_id": "n3207247636",
  "name": "Oldies",
  "lat": "18.79727",
  "long": "99.00239"
},{
  "_id": {
    "$oid": "6216745c4a0d2cd7d5a80443"
  },
  "full_id": "n3211600662",
  "name": "Coffee in Mae Lod",
  "lat": "19.10121",
  "long": "98.77237"
},{
  "_id": {
    "$oid": "6216745c4a0d2cd7d5a80444"
  },
  "full_id": "n3235399085",
  "name": "Cafe de Wang",
  "lat": "18.64154",
  "long": "98.69987"
},{
  "_id": {
    "$oid": "6216745c4a0d2cd7d5a80445"
  },
  "full_id": "n3237458360",
  "name": "Beatles Station",
  "lat": "18.92036",
  "long": "98.91671"
},{
  "_id": {
    "$oid": "6216745c4a0d2cd7d5a80446"
  },
  "full_id": "n3237872029",
  "name": "Coffee & Bakery",
  "lat": "18.79529",
  "long": "98.99657"
},{
  "_id": {
    "$oid": "6216745c4a0d2cd7d5a80447"
  },
  "full_id": "n3242156461",
  "name": "Black Canyon Coffee",
  "lat": "18.78959",
  "long": "98.97056"
},{
  "_id": {
    "$oid": "6216745c4a0d2cd7d5a80448"
  },
  "full_id": "n3242156462",
  "name": "Café Amazon",
  "lat": "18.79666",
  "long": "99.01626"
},{
  "_id": {
    "$oid": "6216745c4a0d2cd7d5a80449"
  },
  "full_id": "n3242548890",
  "name": "Doi Chaang",
  "lat": "18.8074",
  "long": "98.95735"
},{
  "_id": {
    "$oid": "6216745c4a0d2cd7d5a8044a"
  },
  "full_id": "n3247133753",
  "name": "บ้านดอย",
  "lat": "18.94166",
  "long": "98.88727"
},{
  "_id": {
    "$oid": "6216745c4a0d2cd7d5a8044b"
  },
  "full_id": "n3247403107",
  "name": "ไร่องุ่น สอ บีกา",
  "lat": "18.95645",
  "long": "98.80499"
},{
  "_id": {
    "$oid": "6216745c4a0d2cd7d5a8044c"
  },
  "full_id": "n3247457955",
  "name": "Sameong Coffee",
  "lat": "18.72466",
  "long": "98.92532"
},{
  "_id": {
    "$oid": "6216745c4a0d2cd7d5a8044d"
  },
  "full_id": "n3249111057",
  "name": "Black Canyon Coffee",
  "lat": "18.80656",
  "long": "99.01841"
},{
  "_id": {
    "$oid": "6216745c4a0d2cd7d5a8044e"
  },
  "full_id": "n3249112264",
  "name": "Swensens",
  "lat": "18.80627",
  "long": "99.01839"
},{
  "_id": {
    "$oid": "6216745c4a0d2cd7d5a8044f"
  },
  "full_id": "n3256172105",
  "name": "Doi Chaang",
  "lat": "18.74881",
  "long": "98.89025"
},{
  "_id": {
    "$oid": "6216745c4a0d2cd7d5a80450"
  },
  "full_id": "n3266573695",
  "name": "Brews' Job",
  "lat": "18.78407",
  "long": "98.9928"
},{
  "_id": {
    "$oid": "6216745c4a0d2cd7d5a80451"
  },
  "full_id": "n3277470021",
  "name": "Pai Doi Coffee",
  "lat": "18.78792",
  "long": "98.99279"
},{
  "_id": {
    "$oid": "6216745c4a0d2cd7d5a80452"
  },
  "full_id": "n3281905420",
  "name": "สตาร์บัคส์",
  "lat": "18.76953",
  "long": "98.96781"
},{
  "_id": {
    "$oid": "6216745c4a0d2cd7d5a80453"
  },
  "full_id": "n3283940818",
  "name": "Ice Manias",
  "lat": "18.80188",
  "long": "98.97835"
},{
  "_id": {
    "$oid": "6216745c4a0d2cd7d5a80454"
  },
  "full_id": "n3285280608",
  "name": "Soi Cafe",
  "lat": "18.80049",
  "long": "98.97808"
},{
  "_id": {
    "$oid": "6216745c4a0d2cd7d5a80455"
  },
  "full_id": "n3285298562",
  "name": "Artisan",
  "lat": "18.79965",
  "long": "98.97761"
},{
  "_id": {
    "$oid": "6216745c4a0d2cd7d5a80456"
  },
  "full_id": "n3285298563",
  "name": "Beloved Shop",
  "lat": "18.79955",
  "long": "98.97782"
},{
  "_id": {
    "$oid": "6216745c4a0d2cd7d5a80457"
  },
  "full_id": "n3285318965",
  "name": "Sweet Tree",
  "lat": "18.79814",
  "long": "98.97907"
},{
  "_id": {
    "$oid": "6216745c4a0d2cd7d5a80458"
  },
  "full_id": "n3287033149",
  "name": "Café de Museum",
  "lat": "18.78992",
  "long": "98.9883"
},{
  "_id": {
    "$oid": "6216745c4a0d2cd7d5a80459"
  },
  "full_id": "n3287356498",
  "name": "Starbucks",
  "lat": "18.80236",
  "long": "98.96778"
},{
  "_id": {
    "$oid": "6216745c4a0d2cd7d5a8045a"
  },
  "full_id": "n3287791861",
  "name": "Gelabar",
  "lat": "18.79813",
  "long": "98.96949"
},{
  "_id": {
    "$oid": "6216745c4a0d2cd7d5a8045b"
  },
  "full_id": "n3287829862",
  "name": "Timely Cafe",
  "lat": "18.79753",
  "long": "98.96947"
},{
  "_id": {
    "$oid": "6216745c4a0d2cd7d5a8045c"
  },
  "full_id": "n3287846761",
  "name": "Goat Coffee",
  "lat": "18.79759",
  "long": "98.96927"
},{
  "_id": {
    "$oid": "6216745c4a0d2cd7d5a8045d"
  },
  "full_id": "n3287854761",
  "name": "Chuen",
  "lat": "18.79767",
  "long": "98.96834"
},{
  "_id": {
    "$oid": "6216745c4a0d2cd7d5a8045e"
  },
  "full_id": "n3298008463",
  "name": "Coffee Champ",
  "lat": "18.80337",
  "long": "98.98032"
},{
  "_id": {
    "$oid": "6216745c4a0d2cd7d5a8045f"
  },
  "full_id": "n3298047309",
  "name": "Phuphiang Coffee",
  "lat": "18.8053",
  "long": "98.98309"
},{
  "_id": {
    "$oid": "6216745c4a0d2cd7d5a80460"
  },
  "full_id": "n3304375063",
  "name": "Ab'Petite Cafe",
  "lat": "18.80547",
  "long": "98.98334"
},{
  "_id": {
    "$oid": "6216745c4a0d2cd7d5a80461"
  },
  "full_id": "n3305560828",
  "name": "Ponganes",
  "lat": "18.79003",
  "long": "98.99002"
},{
  "_id": {
    "$oid": "6216745c4a0d2cd7d5a80462"
  },
  "full_id": "n3311199585",
  "name": "กาแฟสารภี",
  "lat": "18.80024",
  "long": "98.97539"
},{
  "_id": {
    "$oid": "6216745c4a0d2cd7d5a80463"
  },
  "full_id": "n3311240961",
  "name": "Bakerista",
  "lat": "18.80383",
  "long": "98.97238"
},{
  "_id": {
    "$oid": "6216745c4a0d2cd7d5a80464"
  },
  "full_id": "n3311605585",
  "name": "Miracle Coffee",
  "lat": "18.8049",
  "long": "98.96936"
},{
  "_id": {
    "$oid": "6216745c4a0d2cd7d5a80465"
  },
  "full_id": "n3317902512",
  "name": "โอลด์ดี้ กาแฟไทย",
  "lat": "18.79591",
  "long": "98.9841"
},{
  "_id": {
    "$oid": "6216745c4a0d2cd7d5a80466"
  },
  "full_id": "n3317920525",
  "name": "Café Amazon",
  "lat": "18.79642",
  "long": "98.98303"
},{
  "_id": {
    "$oid": "6216745c4a0d2cd7d5a80467"
  },
  "full_id": "n3318180867",
  "name": "สตาร์บัคส์",
  "lat": "18.79673",
  "long": "98.97598"
},{
  "_id": {
    "$oid": "6216745c4a0d2cd7d5a80468"
  },
  "full_id": "n3318943789",
  "name": "Café Amazon",
  "lat": "19.36881",
  "long": "99.20042"
},{
  "_id": {
    "$oid": "6216745c4a0d2cd7d5a80469"
  },
  "full_id": "n3322713453",
  "name": "Roastniyom Coffee",
  "lat": "18.8368",
  "long": "98.97538"
},{
  "_id": {
    "$oid": "6216745c4a0d2cd7d5a8046a"
  },
  "full_id": "n3322909006",
  "name": "ไอศกรีมป่าตัน",
  "lat": "18.62714",
  "long": "98.89576"
},{
  "_id": {
    "$oid": "6216745c4a0d2cd7d5a8046b"
  },
  "full_id": "n3326560610",
  "name": "L‘Opéra",
  "lat": "18.78146",
  "long": "99.00319"
},{
  "_id": {
    "$oid": "6216745c4a0d2cd7d5a8046c"
  },
  "full_id": "n3329625278",
  "name": "What Coffee",
  "lat": "18.93203",
  "long": "99.34686"
},{
  "_id": {
    "$oid": "6216745c4a0d2cd7d5a8046d"
  },
  "full_id": "n3337437293",
  "name": "Bitter and Sweet",
  "lat": "18.74332",
  "long": "99.12153"
},{
  "_id": {
    "$oid": "6216745c4a0d2cd7d5a8046e"
  },
  "full_id": "n3340127233",
  "name": "Café Amazon",
  "lat": "18.89878",
  "long": "98.86043"
},{
  "_id": {
    "$oid": "6216745c4a0d2cd7d5a8046f"
  },
  "full_id": "n3340956813",
  "name": "My Secret Cafe",
  "lat": "18.85614",
  "long": "98.9868"
},{
  "_id": {
    "$oid": "6216745c4a0d2cd7d5a80470"
  },
  "full_id": "n3340982844",
  "name": "Café Amazon",
  "lat": "18.87559",
  "long": "99.01479"
},{
  "_id": {
    "$oid": "6216745c4a0d2cd7d5a80471"
  },
  "full_id": "n3341008197",
  "name": "Omelette Bakery Cafe",
  "lat": "18.91529",
  "long": "98.94197"
},{
  "_id": {
    "$oid": "6216745c4a0d2cd7d5a80472"
  },
  "full_id": "n3341012238",
  "name": "Chill Chill Cup",
  "lat": "18.9125",
  "long": "98.93775"
},{
  "_id": {
    "$oid": "6216745c4a0d2cd7d5a80473"
  },
  "full_id": "n3341093652",
  "name": "Doi Chaang",
  "lat": "18.7768",
  "long": "98.95379"
},{
  "_id": {
    "$oid": "6216745c4a0d2cd7d5a80474"
  },
  "full_id": "n3342127912",
  "name": "The café",
  "lat": "18.73465",
  "long": "98.93791"
},{
  "_id": {
    "$oid": "6216745c4a0d2cd7d5a80475"
  },
  "full_id": "n3347631779",
  "name": "Black Canyon Coffee",
  "lat": "18.76941",
  "long": "98.97534"
},{
  "_id": {
    "$oid": "6216745c4a0d2cd7d5a80476"
  },
  "full_id": "n3347631782",
  "name": "Coffee World",
  "lat": "18.76937",
  "long": "98.97559"
},{
  "_id": {
    "$oid": "6216745c4a0d2cd7d5a80477"
  },
  "full_id": "n3347631783",
  "name": "Fang Coffee",
  "lat": "18.76955",
  "long": "98.97493"
},{
  "_id": {
    "$oid": "6216745c4a0d2cd7d5a80478"
  },
  "full_id": "n3347633205",
  "name": "สตาร์บัคส์",
  "lat": "18.76978",
  "long": "98.97521"
},{
  "_id": {
    "$oid": "6216745c4a0d2cd7d5a80479"
  },
  "full_id": "n3347633206",
  "name": "Swensen's",
  "lat": "18.76934",
  "long": "98.97471"
},{
  "_id": {
    "$oid": "6216745c4a0d2cd7d5a8047a"
  },
  "full_id": "n3347664219",
  "name": "Swensen's",
  "lat": "18.76956",
  "long": "98.97514"
},{
  "_id": {
    "$oid": "6216745c4a0d2cd7d5a8047b"
  },
  "full_id": "n3359378559",
  "name": "Café Amazon",
  "lat": "18.83411",
  "long": "99.057"
},{
  "_id": {
    "$oid": "6216745c4a0d2cd7d5a8047c"
  },
  "full_id": "n3369589470",
  "name": "Café Amazon",
  "lat": "18.78986",
  "long": "98.9706"
},{
  "_id": {
    "$oid": "6216745c4a0d2cd7d5a8047d"
  },
  "full_id": "n3369589473",
  "name": "QQ Cafe",
  "lat": "18.78998",
  "long": "98.97061"
},{
  "_id": {
    "$oid": "6216745c4a0d2cd7d5a8047e"
  },
  "full_id": "n3369589474",
  "name": "กาแฟรสนิยม",
  "lat": "18.79186",
  "long": "98.97032"
},{
  "_id": {
    "$oid": "6216745c4a0d2cd7d5a8047f"
  },
  "full_id": "n3369623290",
  "name": "Cafe Arte",
  "lat": "18.79276",
  "long": "98.99219"
},{
  "_id": {
    "$oid": "6216745c4a0d2cd7d5a80480"
  },
  "full_id": "n3371232076",
  "name": "มิ่งมิตร",
  "lat": "18.79522",
  "long": "98.98737"
},{
  "_id": {
    "$oid": "6216745c4a0d2cd7d5a80481"
  },
  "full_id": "n3379414262",
  "name": "Hi Coffee",
  "lat": "19.16864",
  "long": "98.69114"
},{
  "_id": {
    "$oid": "6216745c4a0d2cd7d5a80482"
  },
  "full_id": "n3380623726",
  "name": "T@31 Coffee",
  "lat": "18.7941",
  "long": "98.97293"
},{
  "_id": {
    "$oid": "6216745c4a0d2cd7d5a80483"
  },
  "full_id": "n3384100280",
  "name": "Coffee Lovers",
  "lat": "18.78566",
  "long": "98.98316"
},{
  "_id": {
    "$oid": "6216745c4a0d2cd7d5a80484"
  },
  "full_id": "n3384119221",
  "name": "Blue Note",
  "lat": "18.7867",
  "long": "98.98236"
},{
  "_id": {
    "$oid": "6216745c4a0d2cd7d5a80485"
  },
  "full_id": "n3384141891",
  "name": "Nok Kafe",
  "lat": "18.78284",
  "long": "98.98271"
},{
  "_id": {
    "$oid": "6216745c4a0d2cd7d5a80486"
  },
  "full_id": "n3384152432",
  "name": "Happy Espresso",
  "lat": "18.78174",
  "long": "98.98309"
},{
  "_id": {
    "$oid": "6216745c4a0d2cd7d5a80487"
  },
  "full_id": "n3385494997",
  "name": "Fern Forest Cafe",
  "lat": "18.79339",
  "long": "98.98203"
},{
  "_id": {
    "$oid": "6216745c4a0d2cd7d5a80488"
  },
  "full_id": "n3385505418",
  "name": "Tikky's Café",
  "lat": "18.79191",
  "long": "98.97898"
},{
  "_id": {
    "$oid": "6216745c4a0d2cd7d5a80489"
  },
  "full_id": "n3385507274",
  "name": "East Coffee",
  "lat": "18.79273",
  "long": "98.97917"
},{
  "_id": {
    "$oid": "6216745c4a0d2cd7d5a8048a"
  },
  "full_id": "n3388701190",
  "name": "Thor Phan",
  "lat": "18.78869",
  "long": "98.98023"
},{
  "_id": {
    "$oid": "6216745c4a0d2cd7d5a8048b"
  },
  "full_id": "n3388725586",
  "name": "Bike Cafe",
  "lat": "18.7811",
  "long": "98.98251"
},{
  "_id": {
    "$oid": "6216745c4a0d2cd7d5a8048c"
  },
  "full_id": "n3395080852",
  "name": "Love at First Bite",
  "lat": "18.78618",
  "long": "99.00669"
},{
  "_id": {
    "$oid": "6216745c4a0d2cd7d5a8048d"
  },
  "full_id": "n3400272248",
  "name": "I Like Ice-cream",
  "lat": "18.79284",
  "long": "98.95435"
},{
  "_id": {
    "$oid": "6216745c4a0d2cd7d5a8048e"
  },
  "full_id": "n3400287976",
  "name": "Fruiturday",
  "lat": "18.79625",
  "long": "98.96607"
},{
  "_id": {
    "$oid": "6216745c4a0d2cd7d5a8048f"
  },
  "full_id": "n3401322096",
  "name": "The Volcano",
  "lat": "18.77228",
  "long": "98.97829"
},{
  "_id": {
    "$oid": "6216745c4a0d2cd7d5a80490"
  },
  "full_id": "n3409866633",
  "name": "Café Amazon",
  "lat": "18.73862",
  "long": "99.01445"
},{
  "_id": {
    "$oid": "6216745c4a0d2cd7d5a80491"
  },
  "full_id": "n3409866635",
  "name": "Deco Coffee & Tea",
  "lat": "18.74013",
  "long": "99.01427"
},{
  "_id": {
    "$oid": "6216745c4a0d2cd7d5a80492"
  },
  "full_id": "n3412153328",
  "name": "สภากาแฟ 89",
  "lat": "18.75212",
  "long": "99.00891"
},{
  "_id": {
    "$oid": "6216745c4a0d2cd7d5a80493"
  },
  "full_id": "n3412153330",
  "name": "Hugs Coffee",
  "lat": "18.75568",
  "long": "99.01807"
},{
  "_id": {
    "$oid": "6216745c4a0d2cd7d5a80494"
  },
  "full_id": "n3414272473",
  "name": "At Fifteen",
  "lat": "18.7851",
  "long": "98.99612"
},{
  "_id": {
    "$oid": "6216745c4a0d2cd7d5a80495"
  },
  "full_id": "n3414272474",
  "name": "Crema Cafe",
  "lat": "18.78427",
  "long": "98.99597"
},{
  "_id": {
    "$oid": "6216745c4a0d2cd7d5a80496"
  },
  "full_id": "n3414272483",
  "name": "The Baker's",
  "lat": "18.78562",
  "long": "98.99529"
},{
  "_id": {
    "$oid": "6216745c4a0d2cd7d5a80497"
  },
  "full_id": "n3416881722",
  "name": "มนเมืองกาแฟ",
  "lat": "18.74872",
  "long": "99.00483"
},{
  "_id": {
    "$oid": "6216745c4a0d2cd7d5a80498"
  },
  "full_id": "n3417167515",
  "name": "Coffee Bug",
  "lat": "18.78591",
  "long": "99.00272"
},{
  "_id": {
    "$oid": "6216745c4a0d2cd7d5a80499"
  },
  "full_id": "n3417167516",
  "name": "Genocafe",
  "lat": "18.78577",
  "long": "99.003"
},{
  "_id": {
    "$oid": "6216745c4a0d2cd7d5a8049a"
  },
  "full_id": "n3417316793",
  "name": "Yesterday",
  "lat": "18.79708",
  "long": "98.96609"
},{
  "_id": {
    "$oid": "6216745c4a0d2cd7d5a8049b"
  },
  "full_id": "n3418924493",
  "name": "Ban Panfa Cafe & Bakery",
  "lat": "18.73381",
  "long": "99.02802"
},{
  "_id": {
    "$oid": "6216745c4a0d2cd7d5a8049c"
  },
  "full_id": "n3418977493",
  "name": "Coffee Lover Chiang Mai",
  "lat": "18.75041",
  "long": "99.02682"
},{
  "_id": {
    "$oid": "6216745c4a0d2cd7d5a8049d"
  },
  "full_id": "n3418977906",
  "name": "บ้าน นฤมิตร",
  "lat": "18.78958",
  "long": "98.99528"
},{
  "_id": {
    "$oid": "6216745c4a0d2cd7d5a8049e"
  },
  "full_id": "n3418977912",
  "name": "ดาราอาหารเวียดนาม",
  "lat": "18.79186",
  "long": "98.99576"
},{
  "_id": {
    "$oid": "6216745c4a0d2cd7d5a8049f"
  },
  "full_id": "n3419811900",
  "name": "Mont Jo",
  "lat": "18.89975",
  "long": "99.00635"
},{
  "_id": {
    "$oid": "6216745c4a0d2cd7d5a804a0"
  },
  "full_id": "n3419811901",
  "name": "Pakhinai Cafe",
  "lat": "18.78672",
  "long": "98.99025"
},{
  "_id": {
    "$oid": "6216745c4a0d2cd7d5a804a1"
  },
  "full_id": "n3419871310",
  "name": "Toong's",
  "lat": "18.72513",
  "long": "98.9252"
},{
  "_id": {
    "$oid": "6216745c4a0d2cd7d5a804a2"
  },
  "full_id": "n3419878776",
  "name": "Ramino",
  "lat": "18.75169",
  "long": "98.9406"
},{
  "_id": {
    "$oid": "6216745c4a0d2cd7d5a804a3"
  },
  "full_id": "n3419878778",
  "name": "ร้านเกษตร มช.",
  "lat": "18.75424",
  "long": "98.94054"
},{
  "_id": {
    "$oid": "6216745c4a0d2cd7d5a804a4"
  },
  "full_id": "n3421207456",
  "name": "Somhiat",
  "lat": "18.79486",
  "long": "98.97057"
},{
  "_id": {
    "$oid": "6216745c4a0d2cd7d5a804a5"
  },
  "full_id": "n3421245743",
  "name": "Coffeebooz",
  "lat": "18.79333",
  "long": "98.97157"
},{
  "_id": {
    "$oid": "6216745c4a0d2cd7d5a804a6"
  },
  "full_id": "n3421254993",
  "name": "กาแฟสดกาน้ำ",
  "lat": "18.79383",
  "long": "98.97086"
},{
  "_id": {
    "$oid": "6216745c4a0d2cd7d5a804a7"
  },
  "full_id": "n3421254994",
  "name": "Kola's Honeymoon",
  "lat": "18.79366",
  "long": "98.97088"
},{
  "_id": {
    "$oid": "6216745c4a0d2cd7d5a804a8"
  },
  "full_id": "n3421257554",
  "name": "ภคมน",
  "lat": "18.79358",
  "long": "98.97086"
},{
  "_id": {
    "$oid": "6216745c4a0d2cd7d5a804a9"
  },
  "full_id": "n3421271719",
  "name": "To Die For",
  "lat": "18.78949",
  "long": "98.97057"
},{
  "_id": {
    "$oid": "6216745c4a0d2cd7d5a804aa"
  },
  "full_id": "n3421278244",
  "name": "Favour Art Cafe",
  "lat": "18.79447",
  "long": "98.96928"
},{
  "_id": {
    "$oid": "6216745c4a0d2cd7d5a804ab"
  },
  "full_id": "n3421300374",
  "name": "Goong",
  "lat": "18.79514",
  "long": "98.96815"
},{
  "_id": {
    "$oid": "6216745c4a0d2cd7d5a804ac"
  },
  "full_id": "n3421308693",
  "name": "Mango Tango",
  "lat": "18.79638",
  "long": "98.9685"
},{
  "_id": {
    "$oid": "6216745c4a0d2cd7d5a804ad"
  },
  "full_id": "n3426400071",
  "name": "Janie Scoop",
  "lat": "18.79867",
  "long": "98.96864"
},{
  "_id": {
    "$oid": "6216745c4a0d2cd7d5a804ae"
  },
  "full_id": "n3426415662",
  "name": "บ้านตะวันฉาย",
  "lat": "18.79978",
  "long": "98.96873"
},{
  "_id": {
    "$oid": "6216745c4a0d2cd7d5a804af"
  },
  "full_id": "n3426415665",
  "name": "Manifreshto",
  "lat": "18.79878",
  "long": "98.96864"
},{
  "_id": {
    "$oid": "6216745c4a0d2cd7d5a804b0"
  },
  "full_id": "n3426416706",
  "name": "ชั้นหนึ่ง",
  "lat": "18.79981",
  "long": "98.96822"
},{
  "_id": {
    "$oid": "6216745c4a0d2cd7d5a804b1"
  },
  "full_id": "n3426430299",
  "name": "คูร์ทอช์ บ้านเค้กปล่องไฟ",
  "lat": "18.80123",
  "long": "98.96734"
},{
  "_id": {
    "$oid": "6216745c4a0d2cd7d5a804b2"
  },
  "full_id": "n3431033697",
  "name": "Home Sit",
  "lat": "18.79986",
  "long": "98.96752"
},{
  "_id": {
    "$oid": "6216745c4a0d2cd7d5a804b3"
  },
  "full_id": "n3440864915",
  "name": "Clay Studio Café",
  "lat": "18.78216",
  "long": "98.98728"
},{
  "_id": {
    "$oid": "6216745c4a0d2cd7d5a804b4"
  },
  "full_id": "n3453468996",
  "name": "Sanguan",
  "lat": "18.91461",
  "long": "99.08306"
},{
  "_id": {
    "$oid": "6216745c4a0d2cd7d5a804b5"
  },
  "full_id": "n3456825435",
  "name": "Funkydog",
  "lat": "18.79188",
  "long": "98.99246"
},{
  "_id": {
    "$oid": "6216745c4a0d2cd7d5a804b6"
  },
  "full_id": "n3461566102",
  "name": "Rice Life",
  "lat": "18.79623",
  "long": "99.04759"
},{
  "_id": {
    "$oid": "6216745c4a0d2cd7d5a804b7"
  },
  "full_id": "n3470589850",
  "name": "Miss Cafe",
  "lat": "18.75467",
  "long": "99.05381"
},{
  "_id": {
    "$oid": "6216745c4a0d2cd7d5a804b8"
  },
  "full_id": "n3490771193",
  "name": "Swensen's",
  "lat": "18.79831",
  "long": "99.02236"
},{
  "_id": {
    "$oid": "6216745c4a0d2cd7d5a804b9"
  },
  "full_id": "n3498459991",
  "name": "Café Amazon",
  "lat": "18.78462",
  "long": "98.9592"
},{
  "_id": {
    "$oid": "6216745c4a0d2cd7d5a804ba"
  },
  "full_id": "n3540899195",
  "name": "Dunkin' Donuts",
  "lat": "18.83506",
  "long": "99.0372"
},{
  "_id": {
    "$oid": "6216745c4a0d2cd7d5a804bb"
  },
  "full_id": "n3619858705",
  "name": "VAVA Frozen Yogurt",
  "lat": "18.78792",
  "long": "98.9925"
},{
  "_id": {
    "$oid": "6216745c4a0d2cd7d5a804bc"
  },
  "full_id": "n3632282338",
  "name": "ปรารถนา กาแฟ",
  "lat": "18.76454",
  "long": "99.02802"
},{
  "_id": {
    "$oid": "6216745c4a0d2cd7d5a804bd"
  },
  "full_id": "n3632320011",
  "name": "Overstand",
  "lat": "18.78598",
  "long": "98.99266"
},{
  "_id": {
    "$oid": "6216745c4a0d2cd7d5a804be"
  },
  "full_id": "n3643587587",
  "name": "Juice Me Please",
  "lat": "18.79021",
  "long": "98.97084"
},{
  "_id": {
    "$oid": "6216745c4a0d2cd7d5a804bf"
  },
  "full_id": "n3643666024",
  "name": "เมา กาแฟ",
  "lat": "18.75868",
  "long": "98.94348"
},{
  "_id": {
    "$oid": "6216745c4a0d2cd7d5a804c0"
  },
  "full_id": "n3650359131",
  "name": "ค็อฟฟี่เดอแคนเดิล",
  "lat": "18.72615",
  "long": "98.96021"
},{
  "_id": {
    "$oid": "6216745c4a0d2cd7d5a804c1"
  },
  "full_id": "n3670606396",
  "name": "Moon Muang",
  "lat": "18.78321",
  "long": "98.9927"
},{
  "_id": {
    "$oid": "6216745c4a0d2cd7d5a804c2"
  },
  "full_id": "n3672043732",
  "name": "Library Coffee (5F)",
  "lat": "18.79",
  "long": "98.97274"
},{
  "_id": {
    "$oid": "6216745c4a0d2cd7d5a804c3"
  },
  "full_id": "n3699435615",
  "name": "Ramino de Cafe",
  "lat": "18.76213",
  "long": "99.03023"
},{
  "_id": {
    "$oid": "6216745c4a0d2cd7d5a804c4"
  },
  "full_id": "n3741019925",
  "name": "72 Café",
  "lat": "18.79617",
  "long": "98.96614"
},{
  "_id": {
    "$oid": "6216745c4a0d2cd7d5a804c5"
  },
  "full_id": "n3781540200",
  "name": "The Harbour",
  "lat": "20.06007",
  "long": "99.36251"
},{
  "_id": {
    "$oid": "6216745c4a0d2cd7d5a804c6"
  },
  "full_id": "n3803713498",
  "name": "Kaffee Bitte",
  "lat": "18.92985",
  "long": "98.92981"
},{
  "_id": {
    "$oid": "6216745c4a0d2cd7d5a804c7"
  },
  "full_id": "n3810861066",
  "name": "Café Amazon",
  "lat": "18.77216",
  "long": "98.97252"
},{
  "_id": {
    "$oid": "6216745c4a0d2cd7d5a804c8"
  },
  "full_id": "n3819711686",
  "name": "Catmosphere Cat Café",
  "lat": "18.80635",
  "long": "98.95791"
},{
  "_id": {
    "$oid": "6216745c4a0d2cd7d5a804c9"
  },
  "full_id": "n3832005201",
  "name": "แกะดำฉำฉา",
  "lat": "18.65485",
  "long": "98.86489"
},{
  "_id": {
    "$oid": "6216745c4a0d2cd7d5a804ca"
  },
  "full_id": "n3843126639",
  "name": "Cozy Cafe",
  "lat": "18.77915",
  "long": "98.98873"
},{
  "_id": {
    "$oid": "6216745c4a0d2cd7d5a804cb"
  },
  "full_id": "n3843126641",
  "name": "La Mango",
  "lat": "18.78972",
  "long": "98.98769"
},{
  "_id": {
    "$oid": "6216745c4a0d2cd7d5a804cc"
  },
  "full_id": "n3843126642",
  "name": "Local Cafe",
  "lat": "18.801",
  "long": "98.96746"
},{
  "_id": {
    "$oid": "6216745c4a0d2cd7d5a804cd"
  },
  "full_id": "n3851468855",
  "name": "บ้านเชียงรุ้ง",
  "lat": "18.8712",
  "long": "99.12585"
},{
  "_id": {
    "$oid": "6216745c4a0d2cd7d5a804ce"
  },
  "full_id": "n3851644959",
  "name": "Food",
  "lat": "19.32846",
  "long": "98.92814"
},{
  "_id": {
    "$oid": "6216745c4a0d2cd7d5a804cf"
  },
  "full_id": "n3854066930",
  "name": "Café Amazon",
  "lat": "19.68789",
  "long": "99.14863"
},{
  "_id": {
    "$oid": "6216745c4a0d2cd7d5a804d0"
  },
  "full_id": "n3877442977",
  "name": "Inthanin Coffee",
  "lat": "18.77712",
  "long": "98.97664"
},{
  "_id": {
    "$oid": "6216745c4a0d2cd7d5a804d1"
  },
  "full_id": "n3880114766",
  "name": "Café Amazon",
  "lat": "18.19356",
  "long": "98.60708"
},{
  "_id": {
    "$oid": "6216745c4a0d2cd7d5a804d2"
  },
  "full_id": "n3884665393",
  "name": "ณ แม่ตื๋น คาเฟ่",
  "lat": "17.40543",
  "long": "98.45554"
},{
  "_id": {
    "$oid": "6216745c4a0d2cd7d5a804d3"
  },
  "full_id": "n3897763597",
  "name": "คาเฟ่ เม้าท์ฟิวล์",
  "lat": "18.80511",
  "long": "98.97329"
},{
  "_id": {
    "$oid": "6216745c4a0d2cd7d5a804d4"
  },
  "full_id": "n3905979257",
  "name": "Maison de Café",
  "lat": "18.87475",
  "long": "99.00799"
},{
  "_id": {
    "$oid": "6216745c4a0d2cd7d5a804d5"
  },
  "full_id": "n3906212509",
  "name": "Café Amazon",
  "lat": "18.76538",
  "long": "98.99158"
},{
  "_id": {
    "$oid": "6216745c4a0d2cd7d5a804d6"
  },
  "full_id": "n3907605475",
  "name": "Trailhead Café",
  "lat": "18.7822",
  "long": "98.98976"
},{
  "_id": {
    "$oid": "6216745c4a0d2cd7d5a804d7"
  },
  "full_id": "n3907871477",
  "name": "My Secret Cafe",
  "lat": "18.78811",
  "long": "98.98323"
},{
  "_id": {
    "$oid": "6216745c4a0d2cd7d5a804d8"
  },
  "full_id": "n3907871479",
  "name": "Wawee Coffee",
  "lat": "18.77226",
  "long": "98.99956"
},{
  "_id": {
    "$oid": "6216745c4a0d2cd7d5a804d9"
  },
  "full_id": "n3908107549",
  "name": "Cafe de Krabi",
  "lat": "18.771",
  "long": "99.00547"
},{
  "_id": {
    "$oid": "6216745c4a0d2cd7d5a804da"
  },
  "full_id": "n3912487219",
  "name": "Inthanin Coffee",
  "lat": "18.90123",
  "long": "98.95001"
},{
  "_id": {
    "$oid": "6216745c4a0d2cd7d5a804db"
  },
  "full_id": "n3912487220",
  "name": "โป่งแยงเบอร์รี่-วินดี้ฮิลล์",
  "lat": "18.91177",
  "long": "98.82592"
},{
  "_id": {
    "$oid": "6216745c4a0d2cd7d5a804dc"
  },
  "full_id": "n3924966402",
  "name": "Café Amazon",
  "lat": "18.91918",
  "long": "98.94325"
},{
  "_id": {
    "$oid": "6216745c4a0d2cd7d5a804dd"
  },
  "full_id": "n3927203442",
  "name": "Café Amazon",
  "lat": "18.7508",
  "long": "98.92521"
},{
  "_id": {
    "$oid": "6216745c4a0d2cd7d5a804de"
  },
  "full_id": "n3927203446",
  "name": "Fahtara",
  "lat": "18.79297",
  "long": "98.98621"
},{
  "_id": {
    "$oid": "6216745c4a0d2cd7d5a804df"
  },
  "full_id": "n3927203448",
  "name": "Healthy B",
  "lat": "18.79844",
  "long": "98.96906"
},{
  "_id": {
    "$oid": "6216745c4a0d2cd7d5a804e0"
  },
  "full_id": "n3927203449",
  "name": "Mac Cafe",
  "lat": "18.8065",
  "long": "98.95793"
},{
  "_id": {
    "$oid": "6216745c4a0d2cd7d5a804e1"
  },
  "full_id": "n3927203453",
  "name": "The Coffee Station",
  "lat": "18.79803",
  "long": "98.97347"
},{
  "_id": {
    "$oid": "6216745c4a0d2cd7d5a804e2"
  },
  "full_id": "n3928262001",
  "name": "อินทนนท์ กาแฟสด",
  "lat": "18.74497",
  "long": "98.98949"
},{
  "_id": {
    "$oid": "6216745c4a0d2cd7d5a804e3"
  },
  "full_id": "n3930110086",
  "name": "Ying Yui Coffee",
  "lat": "19.20039",
  "long": "98.88777"
},{
  "_id": {
    "$oid": "6216745c4a0d2cd7d5a804e4"
  },
  "full_id": "n3933516649",
  "name": "Chillan Coffee",
  "lat": "18.68254",
  "long": "98.91865"
},{
  "_id": {
    "$oid": "6216745c4a0d2cd7d5a804e5"
  },
  "full_id": "n3935432857",
  "name": "Ocha Coffee",
  "lat": "18.78919",
  "long": "98.95521"
},{
  "_id": {
    "$oid": "6216745c4a0d2cd7d5a804e6"
  },
  "full_id": "n3937133676",
  "name": "ออนเดอะเวย์ คาเฟ่",
  "lat": "18.84244",
  "long": "98.98193"
},{
  "_id": {
    "$oid": "6216745c4a0d2cd7d5a804e7"
  },
  "full_id": "n3937133678",
  "name": "ไอดีดี คาเฟ่",
  "lat": "18.83361",
  "long": "99.00331"
},{
  "_id": {
    "$oid": "6216745c4a0d2cd7d5a804e8"
  },
  "full_id": "n3957108529",
  "name": "Bodhi Tree 1 Café",
  "lat": "18.78603",
  "long": "98.99147"
},{
  "_id": {
    "$oid": "6216745c4a0d2cd7d5a804e9"
  },
  "full_id": "n3968872886",
  "name": "Rao photo coffee",
  "lat": "18.78127",
  "long": "98.95347"
},{
  "_id": {
    "$oid": "6216745c4a0d2cd7d5a804ea"
  },
  "full_id": "n3979200911",
  "name": "Jario Coffee",
  "lat": "18.82801",
  "long": "99.01282"
},{
  "_id": {
    "$oid": "6216745c4a0d2cd7d5a804eb"
  },
  "full_id": "n3996636060",
  "name": "Caffè B{e}arista",
  "lat": "18.80355",
  "long": "98.97447"
},{
  "_id": {
    "$oid": "6216745c4a0d2cd7d5a804ec"
  },
  "full_id": "n4009513093",
  "name": "Eight Cafe Chiangmai",
  "lat": "18.76452",
  "long": "99.00831"
},{
  "_id": {
    "$oid": "6216745c4a0d2cd7d5a804ed"
  },
  "full_id": "n4052303895",
  "name": "Cafe",
  "lat": "18.73264",
  "long": "98.9743"
},{
  "_id": {
    "$oid": "6216745c4a0d2cd7d5a804ee"
  },
  "full_id": "n4064637987",
  "name": "Bee Healthy",
  "lat": "18.76659",
  "long": "98.99526"
},{
  "_id": {
    "$oid": "6216745c4a0d2cd7d5a804ef"
  },
  "full_id": "n4067975166",
  "name": "กาแฟยิ้มยิ้ม",
  "lat": "18.74762",
  "long": "99.0092"
},{
  "_id": {
    "$oid": "6216745c4a0d2cd7d5a804f0"
  },
  "full_id": "n4069454731",
  "name": "เคลิ้มกาแฟ",
  "lat": "18.76199",
  "long": "99.00157"
},{
  "_id": {
    "$oid": "6216745c4a0d2cd7d5a804f1"
  },
  "full_id": "n4069613391",
  "name": "The Paper: Books, Coffee & Guest House",
  "lat": "18.74877",
  "long": "98.98678"
},{
  "_id": {
    "$oid": "6216745c4a0d2cd7d5a804f2"
  },
  "full_id": "n4089415962",
  "name": "Doi Chaang Coffee",
  "lat": "18.70694",
  "long": "99.02667"
},{
  "_id": {
    "$oid": "6216745c4a0d2cd7d5a804f3"
  },
  "full_id": "n4115297791",
  "name": "Café Amazon",
  "lat": "18.75149",
  "long": "99.06353"
},{
  "_id": {
    "$oid": "6216745c4a0d2cd7d5a804f4"
  },
  "full_id": "n4129821990",
  "name": "Coffee Cop",
  "lat": "18.78566",
  "long": "98.9875"
},{
  "_id": {
    "$oid": "6216745c4a0d2cd7d5a804f5"
  },
  "full_id": "n4132247489",
  "name": "Kaldi Coffee House",
  "lat": "18.78815",
  "long": "98.98682"
},{
  "_id": {
    "$oid": "6216745c4a0d2cd7d5a804f6"
  },
  "full_id": "n4139956489",
  "name": "HOM cafe",
  "lat": "18.7937",
  "long": "98.99345"
},{
  "_id": {
    "$oid": "6216745c4a0d2cd7d5a804f7"
  },
  "full_id": "n4142717265",
  "name": "Yellow Duck Cafe",
  "lat": "18.81691",
  "long": "99.02058"
},{
  "_id": {
    "$oid": "6216745c4a0d2cd7d5a804f8"
  },
  "full_id": "n4173012792",
  "name": "錯誤",
  "lat": "18.76032",
  "long": "98.99813"
},{
  "_id": {
    "$oid": "6216745c4a0d2cd7d5a804f9"
  },
  "full_id": "n4180090391",
  "name": "ฮอห์ม คาเฟ่",
  "lat": "18.81863",
  "long": "98.96919"
},{
  "_id": {
    "$oid": "6216745c4a0d2cd7d5a804fa"
  },
  "full_id": "n4203872790",
  "name": "Banporpiang Coffee",
  "lat": "19.44847",
  "long": "98.9831"
},{
  "_id": {
    "$oid": "6216745c4a0d2cd7d5a804fb"
  },
  "full_id": "n4206128689",
  "name": "Doi Luang Coffee",
  "lat": "20.06035",
  "long": "99.36132"
},{
  "_id": {
    "$oid": "6216745c4a0d2cd7d5a804fc"
  },
  "full_id": "n4206129189",
  "name": "Espresso - 95 Coffee",
  "lat": "20.06",
  "long": "99.36117"
},{
  "_id": {
    "$oid": "6216745c4a0d2cd7d5a804fd"
  },
  "full_id": "n4208599025",
  "name": "Cafe de Time",
  "lat": "19.62441",
  "long": "99.12892"
},{
  "_id": {
    "$oid": "6216745c4a0d2cd7d5a804fe"
  },
  "full_id": "n4210249666",
  "name": "Huean Hug Coffee",
  "lat": "18.80294",
  "long": "98.97543"
},{
  "_id": {
    "$oid": "6216745c4a0d2cd7d5a804ff"
  },
  "full_id": "n4212373091",
  "name": "Kalapela Tea House",
  "lat": "18.78823",
  "long": "98.98653"
},{
  "_id": {
    "$oid": "6216745c4a0d2cd7d5a80500"
  },
  "full_id": "n4217131891",
  "name": "The Juicery",
  "lat": "18.78647",
  "long": "98.98215"
},{
  "_id": {
    "$oid": "6216745c4a0d2cd7d5a80501"
  },
  "full_id": "n4225187389",
  "name": "Nine coffee",
  "lat": "18.78995",
  "long": "98.9816"
},{
  "_id": {
    "$oid": "6216745c4a0d2cd7d5a80502"
  },
  "full_id": "n4225761969",
  "name": "Collina",
  "lat": "18.80597",
  "long": "98.99714"
},{
  "_id": {
    "$oid": "6216745c4a0d2cd7d5a80503"
  },
  "full_id": "n4248786004",
  "name": "บีซู คาเฟ่",
  "lat": "18.77171",
  "long": "98.94751"
},{
  "_id": {
    "$oid": "6216745c4a0d2cd7d5a80504"
  },
  "full_id": "n4260029196",
  "name": "Café Chez Nous",
  "lat": "19.08803",
  "long": "98.90256"
},{
  "_id": {
    "$oid": "6216745c4a0d2cd7d5a80505"
  },
  "full_id": "n4262547890",
  "name": "Graveyard View",
  "lat": "19.10784",
  "long": "99.04059"
},{
  "_id": {
    "$oid": "6216745c4a0d2cd7d5a80506"
  },
  "full_id": "n4265502391",
  "name": "Omnia",
  "lat": "18.81367",
  "long": "98.97379"
},{
  "_id": {
    "$oid": "6216745c4a0d2cd7d5a80507"
  },
  "full_id": "n4265515989",
  "name": "Cottontree",
  "lat": "18.80428",
  "long": "98.96786"
},{
  "_id": {
    "$oid": "6216745c4a0d2cd7d5a80508"
  },
  "full_id": "n4281954591",
  "name": "Mild",
  "lat": "18.79369",
  "long": "98.99221"
},{
  "_id": {
    "$oid": "6216745c4a0d2cd7d5a80509"
  },
  "full_id": "n4285584789",
  "name": "Wake Up",
  "lat": "18.79647",
  "long": "98.96579"
},{
  "_id": {
    "$oid": "6216745c4a0d2cd7d5a8050a"
  },
  "full_id": "n4294806092",
  "name": "Doi Chaang",
  "lat": "19.74688",
  "long": "99.1447"
},{
  "_id": {
    "$oid": "6216745c4a0d2cd7d5a8050b"
  },
  "full_id": "n4324640989",
  "name": "Hazz cafe - Hallal (A/C)",
  "lat": "18.76918",
  "long": "99.00061"
},{
  "_id": {
    "$oid": "6216745c4a0d2cd7d5a8050c"
  },
  "full_id": "n4333425791",
  "name": "Tiger TED Cafe",
  "lat": "18.80229",
  "long": "98.96646"
},{
  "_id": {
    "$oid": "6216745c4a0d2cd7d5a8050d"
  },
  "full_id": "n4336587591",
  "name": "ร้านแม่",
  "lat": "18.7519",
  "long": "99.02992"
},{
  "_id": {
    "$oid": "6216745c4a0d2cd7d5a8050e"
  },
  "full_id": "n4336604689",
  "name": "7-11 ห้าแยกสันติธรรม",
  "lat": "18.8024",
  "long": "98.97834"
},{
  "_id": {
    "$oid": "6216745c4a0d2cd7d5a8050f"
  },
  "full_id": "n4348232705",
  "name": "Buff Cafe",
  "lat": "18.72477",
  "long": "98.92653"
},{
  "_id": {
    "$oid": "6216745c4a0d2cd7d5a80510"
  },
  "full_id": "n4352243455",
  "name": "Four Heavens Cafe & Bistro",
  "lat": "18.8288",
  "long": "99.01343"
},{
  "_id": {
    "$oid": "6216745c4a0d2cd7d5a80511"
  },
  "full_id": "n4352509194",
  "name": "Plum Coffee & Smoothies",
  "lat": "18.78842",
  "long": "98.99857"
},{
  "_id": {
    "$oid": "6216745c4a0d2cd7d5a80512"
  },
  "full_id": "n4353673933",
  "name": "แมวมอธ แคทคาเฟ่",
  "lat": "18.78982",
  "long": "98.95594"
},{
  "_id": {
    "$oid": "6216745c4a0d2cd7d5a80513"
  },
  "full_id": "n4353683213",
  "name": "The Coffee Work",
  "lat": "18.78988",
  "long": "98.95689"
},{
  "_id": {
    "$oid": "6216745c4a0d2cd7d5a80514"
  },
  "full_id": "n4353876797",
  "name": "Coffee Love",
  "lat": "18.80663",
  "long": "98.97956"
},{
  "_id": {
    "$oid": "6216745c4a0d2cd7d5a80515"
  },
  "full_id": "n4358605082",
  "name": "Inbox Coffee",
  "lat": "18.78791",
  "long": "98.9626"
},{
  "_id": {
    "$oid": "6216745c4a0d2cd7d5a80516"
  },
  "full_id": "n4358611169",
  "name": "ร้านกาแฟสังคม",
  "lat": "18.78971",
  "long": "98.95582"
},{
  "_id": {
    "$oid": "6216745c4a0d2cd7d5a80517"
  },
  "full_id": "n4358616613",
  "name": "โตและสด",
  "lat": "18.78975",
  "long": "98.9643"
},{
  "_id": {
    "$oid": "6216745c4a0d2cd7d5a80518"
  },
  "full_id": "n4358831080",
  "name": "ร้านกาแฟสังคม",
  "lat": "18.79134",
  "long": "98.95927"
},{
  "_id": {
    "$oid": "6216745c4a0d2cd7d5a80519"
  },
  "full_id": "n4358843115",
  "name": "ร้านกาแฟสังคม",
  "lat": "18.79122",
  "long": "98.95938"
},{
  "_id": {
    "$oid": "6216745c4a0d2cd7d5a8051a"
  },
  "full_id": "n4359154584",
  "name": "กูโรตี",
  "lat": "18.80761",
  "long": "98.995"
},{
  "_id": {
    "$oid": "6216745c4a0d2cd7d5a8051b"
  },
  "full_id": "n4359158922",
  "name": "ตี๋นมสด",
  "lat": "18.80839",
  "long": "98.99551"
},{
  "_id": {
    "$oid": "6216745c4a0d2cd7d5a8051c"
  },
  "full_id": "n4359739852",
  "name": "Ice Love You Cafe'",
  "lat": "18.78898",
  "long": "98.96513"
},{
  "_id": {
    "$oid": "6216745c4a0d2cd7d5a8051d"
  },
  "full_id": "n4360053466",
  "name": "ร้านนมมน",
  "lat": "18.79013",
  "long": "98.9627"
},{
  "_id": {
    "$oid": "6216745c4a0d2cd7d5a8051e"
  },
  "full_id": "n4360075278",
  "name": "กาแฟดีนาน",
  "lat": "18.78966",
  "long": "98.96481"
},{
  "_id": {
    "$oid": "6216745c4a0d2cd7d5a8051f"
  },
  "full_id": "n4360094735",
  "name": "Wide-awake 24 hours",
  "lat": "18.79311",
  "long": "98.97242"
},{
  "_id": {
    "$oid": "6216745c4a0d2cd7d5a80520"
  },
  "full_id": "n4360106566",
  "name": "Smile Milk Uniserv CMU",
  "lat": "18.79355",
  "long": "98.96751"
},{
  "_id": {
    "$oid": "6216745c4a0d2cd7d5a80521"
  },
  "full_id": "n4360574586",
  "name": "D-Milk ไมโลดิบ",
  "lat": "18.79184",
  "long": "98.95804"
},{
  "_id": {
    "$oid": "6216745c4a0d2cd7d5a80522"
  },
  "full_id": "n4362261291",
  "name": "ม่อน คาเฟ่",
  "lat": "19.06384",
  "long": "98.93941"
},{
  "_id": {
    "$oid": "6216745c4a0d2cd7d5a80523"
  },
  "full_id": "n4362621673",
  "name": "ชาชิมิ",
  "lat": "18.79252",
  "long": "98.95597"
},{
  "_id": {
    "$oid": "6216745c4a0d2cd7d5a80524"
  },
  "full_id": "n4364338694",
  "name": "เฟื่องฟ้า คาเฟ่",
  "lat": "18.79052",
  "long": "98.99017"
},{
  "_id": {
    "$oid": "6216745c4a0d2cd7d5a80525"
  },
  "full_id": "n4413425463",
  "name": "Cafe Amazon",
  "lat": "18.80738",
  "long": "98.95705"
},{
  "_id": {
    "$oid": "6216745c4a0d2cd7d5a80526"
  },
  "full_id": "n4416236897",
  "name": "Black coffee smile",
  "lat": "18.79942",
  "long": "99.01695"
},{
  "_id": {
    "$oid": "6216745c4a0d2cd7d5a80527"
  },
  "full_id": "n4426152917",
  "name": "Uncle Lee Coffee",
  "lat": "18.83395",
  "long": "99.20203"
},{
  "_id": {
    "$oid": "6216745c4a0d2cd7d5a80528"
  },
  "full_id": "n4427268749",
  "name": "Wake You Up",
  "lat": "18.79933",
  "long": "99.02466"
},{
  "_id": {
    "$oid": "6216745c4a0d2cd7d5a80529"
  },
  "full_id": "n4427268751",
  "name": "Blue Cafe",
  "lat": "18.79882",
  "long": "99.02449"
},{
  "_id": {
    "$oid": "6216745c4a0d2cd7d5a8052a"
  },
  "full_id": "n4438545289",
  "name": "Ristr8to Lab",
  "lat": "18.79884",
  "long": "98.96864"
},{
  "_id": {
    "$oid": "6216745c4a0d2cd7d5a8052b"
  },
  "full_id": "n4440847089",
  "name": "Taa Peng Cat",
  "lat": "18.78755",
  "long": "98.98253"
},{
  "_id": {
    "$oid": "6216745c4a0d2cd7d5a8052c"
  },
  "full_id": "n4441486862",
  "name": "Moom la Moon Café",
  "lat": "18.80269",
  "long": "98.98231"
},{
  "_id": {
    "$oid": "6216745c4a0d2cd7d5a8052d"
  },
  "full_id": "n4446821271",
  "name": "Lanna Cafe",
  "lat": "18.85513",
  "long": "98.99967"
},{
  "_id": {
    "$oid": "6216745c4a0d2cd7d5a8052e"
  },
  "full_id": "n4458563051",
  "name": "ลุงปุ๊ด-ป้าเป็ง",
  "lat": "18.86533",
  "long": "99.35069"
},{
  "_id": {
    "$oid": "6216745c4a0d2cd7d5a8052f"
  },
  "full_id": "n4459082049",
  "name": "เก๊ามะขาม",
  "lat": "18.41459",
  "long": "98.70876"
},{
  "_id": {
    "$oid": "6216745c4a0d2cd7d5a80530"
  },
  "full_id": "n4460077989",
  "name": "Doi Taeng Coffee",
  "lat": "18.82542",
  "long": "99.01129"
},{
  "_id": {
    "$oid": "6216745c4a0d2cd7d5a80531"
  },
  "full_id": "n4461682615",
  "name": "Ted Du Coffee",
  "lat": "18.86515",
  "long": "99.34742"
},{
  "_id": {
    "$oid": "6216745c4a0d2cd7d5a80532"
  },
  "full_id": "n4476976180",
  "name": "Cafe Kantary",
  "lat": "18.79597",
  "long": "98.96546"
},{
  "_id": {
    "$oid": "6216745c4a0d2cd7d5a80533"
  },
  "full_id": "n4496361990",
  "name": "Black Ground",
  "lat": "18.79501",
  "long": "98.96545"
},{
  "_id": {
    "$oid": "6216745c4a0d2cd7d5a80534"
  },
  "full_id": "n4504644390",
  "name": "กาแฟ รสนิยม",
  "lat": "18.7962",
  "long": "99.00823"
},{
  "_id": {
    "$oid": "6216745c4a0d2cd7d5a80535"
  },
  "full_id": "n4505551231",
  "name": "Ombra Cafe",
  "lat": "18.79986",
  "long": "98.97462"
},{
  "_id": {
    "$oid": "6216745c4a0d2cd7d5a80536"
  },
  "full_id": "n4506585926",
  "name": "Good Vibes Cafe",
  "lat": "18.74031",
  "long": "98.97447"
},{
  "_id": {
    "$oid": "6216745c4a0d2cd7d5a80537"
  },
  "full_id": "n4513838300",
  "name": "Inthanin Coffee",
  "lat": "18.43091",
  "long": "98.68358"
},{
  "_id": {
    "$oid": "6216745c4a0d2cd7d5a80538"
  },
  "full_id": "n4513838582",
  "name": "Cafe Klang Doi",
  "lat": "18.15103",
  "long": "98.2451"
},{
  "_id": {
    "$oid": "6216745c4a0d2cd7d5a80539"
  },
  "full_id": "n4514610993",
  "name": "Mix Kaffee",
  "lat": "18.79098",
  "long": "98.97847"
},{
  "_id": {
    "$oid": "6216745c4a0d2cd7d5a8053a"
  },
  "full_id": "n4522532754",
  "name": "Gedhawa",
  "lat": "18.85227",
  "long": "98.96699"
},{
  "_id": {
    "$oid": "6216745c4a0d2cd7d5a8053b"
  },
  "full_id": "n4535975015",
  "name": "Oasis Café",
  "lat": "18.79636",
  "long": "98.99311"
},{
  "_id": {
    "$oid": "6216745c4a0d2cd7d5a8053c"
  },
  "full_id": "n4536303338",
  "name": "Salotto Coffee",
  "lat": "18.80028",
  "long": "98.99426"
},{
  "_id": {
    "$oid": "6216745c4a0d2cd7d5a8053d"
  },
  "full_id": "n4537983761",
  "name": "Yin Dee",
  "lat": "18.7911",
  "long": "98.99526"
},{
  "_id": {
    "$oid": "6216745c4a0d2cd7d5a8053e"
  },
  "full_id": "n4539213080",
  "name": "Hana Zono",
  "lat": "18.78747",
  "long": "98.96896"
},{
  "_id": {
    "$oid": "6216745c4a0d2cd7d5a8053f"
  },
  "full_id": "n4539213084",
  "name": "Uncle Coffee",
  "lat": "18.78656",
  "long": "98.96866"
},{
  "_id": {
    "$oid": "6216745c4a0d2cd7d5a80540"
  },
  "full_id": "n4552503190",
  "name": "Miracle coffee",
  "lat": "18.79438",
  "long": "98.99008"
},{
  "_id": {
    "$oid": "6216745c4a0d2cd7d5a80541"
  },
  "full_id": "n4553735161",
  "name": "Top Coffee",
  "lat": "19.17411",
  "long": "99.03027"
},{
  "_id": {
    "$oid": "6216745c4a0d2cd7d5a80542"
  },
  "full_id": "n4554412845",
  "name": "Near Mom Cafe",
  "lat": "18.75947",
  "long": "99.13959"
},{
  "_id": {
    "$oid": "6216745c4a0d2cd7d5a80543"
  },
  "full_id": "n4555359051",
  "name": "Asama",
  "lat": "18.76502",
  "long": "98.95312"
},{
  "_id": {
    "$oid": "6216745c4a0d2cd7d5a80544"
  },
  "full_id": "n4556047500",
  "name": "Coffactry",
  "lat": "18.75351",
  "long": "99.12936"
},{
  "_id": {
    "$oid": "6216745c4a0d2cd7d5a80545"
  },
  "full_id": "n4557856199",
  "name": "Sang",
  "lat": "18.79062",
  "long": "98.99324"
},{
  "_id": {
    "$oid": "6216745c4a0d2cd7d5a80546"
  },
  "full_id": "n4559427489",
  "name": "Come on coffe",
  "lat": "18.79234",
  "long": "98.99019"
},{
  "_id": {
    "$oid": "6216745c4a0d2cd7d5a80547"
  },
  "full_id": "n4563204089",
  "name": "Libernard Cafe",
  "lat": "18.79028",
  "long": "98.99423"
},{
  "_id": {
    "$oid": "6216745c4a0d2cd7d5a80548"
  },
  "full_id": "n4586086268",
  "name": "Tom'n'Toms Coffee",
  "lat": "18.8002",
  "long": "99.01883"
},{
  "_id": {
    "$oid": "6216745c4a0d2cd7d5a80549"
  },
  "full_id": "n4586086270",
  "name": "Wawee Coffee",
  "lat": "18.80009",
  "long": "99.01839"
},{
  "_id": {
    "$oid": "6216745c4a0d2cd7d5a8054a"
  },
  "full_id": "n4586796889",
  "name": "Ma-Chill",
  "lat": "18.78117",
  "long": "98.99413"
},{
  "_id": {
    "$oid": "6216745c4a0d2cd7d5a8054b"
  },
  "full_id": "n4591854123",
  "name": "เดอดอยหล่อ",
  "lat": "18.48296",
  "long": "98.80221"
},{
  "_id": {
    "$oid": "6216745c4a0d2cd7d5a8054c"
  },
  "full_id": "n4592642581",
  "name": "พอใจค็อฟฟี่",
  "lat": "18.90959",
  "long": "99.01696"
},{
  "_id": {
    "$oid": "6216745c4a0d2cd7d5a8054d"
  },
  "full_id": "n4592959931",
  "name": "กาแฟโบราณ",
  "lat": "18.91192",
  "long": "99.01714"
},{
  "_id": {
    "$oid": "6216745c4a0d2cd7d5a8054e"
  },
  "full_id": "n4594757865",
  "name": "Love@Rimrin",
  "lat": "18.97391",
  "long": "98.94586"
},{
  "_id": {
    "$oid": "6216745c4a0d2cd7d5a8054f"
  },
  "full_id": "n4594764320",
  "name": "Cat's Coffee",
  "lat": "19.0261",
  "long": "98.94452"
},{
  "_id": {
    "$oid": "6216745c4a0d2cd7d5a80550"
  },
  "full_id": "n4595116409",
  "name": "Chusin Coffee",
  "lat": "19.14458",
  "long": "98.9998"
},{
  "_id": {
    "$oid": "6216745c4a0d2cd7d5a80551"
  },
  "full_id": "n4596223590",
  "name": "Cat Me",
  "lat": "18.79912",
  "long": "98.96572"
},{
  "_id": {
    "$oid": "6216745c4a0d2cd7d5a80552"
  },
  "full_id": "n4596241378",
  "name": "Hug a Cup",
  "lat": "18.79937",
  "long": "98.96409"
},{
  "_id": {
    "$oid": "6216745c4a0d2cd7d5a80553"
  },
  "full_id": "n4596241387",
  "name": "Flapping Duck",
  "lat": "18.80095",
  "long": "98.96368"
},{
  "_id": {
    "$oid": "6216745c4a0d2cd7d5a80554"
  },
  "full_id": "n4596413944",
  "name": "Frenchie Cafe",
  "lat": "18.79503",
  "long": "98.96369"
},{
  "_id": {
    "$oid": "6216745c4a0d2cd7d5a80555"
  },
  "full_id": "n4596413946",
  "name": "October",
  "lat": "18.79506",
  "long": "98.96357"
},{
  "_id": {
    "$oid": "6216745c4a0d2cd7d5a80556"
  },
  "full_id": "n4596413947",
  "name": "Shaker House",
  "lat": "18.79695",
  "long": "98.96599"
},{
  "_id": {
    "$oid": "6216745c4a0d2cd7d5a80557"
  },
  "full_id": "n4601037990",
  "name": "ดอกสนคาเฟ่",
  "lat": "18.1467",
  "long": "98.34849"
},{
  "_id": {
    "$oid": "6216745c4a0d2cd7d5a80558"
  },
  "full_id": "n4602601056",
  "name": "Pronto Café",
  "lat": "18.87809",
  "long": "99.12522"
},{
  "_id": {
    "$oid": "6216745c4a0d2cd7d5a80559"
  },
  "full_id": "n4608105020",
  "name": "The Chef",
  "lat": "18.79305",
  "long": "98.98949"
},{
  "_id": {
    "$oid": "6216745c4a0d2cd7d5a8055a"
  },
  "full_id": "n4608389285",
  "name": "Aleenta Coffea",
  "lat": "18.84394",
  "long": "99.01811"
},{
  "_id": {
    "$oid": "6216745c4a0d2cd7d5a8055b"
  },
  "full_id": "n4608589190",
  "name": "Bonbon Cafe",
  "lat": "18.84194",
  "long": "99.07077"
},{
  "_id": {
    "$oid": "6216745c4a0d2cd7d5a8055c"
  },
  "full_id": "n4609472603",
  "name": "SP Coffee",
  "lat": "18.74779",
  "long": "99.06739"
},{
  "_id": {
    "$oid": "6216745c4a0d2cd7d5a8055d"
  },
  "full_id": "n4623096989",
  "name": "Lana coffee",
  "lat": "18.78826",
  "long": "98.98834"
},{
  "_id": {
    "$oid": "6216745c4a0d2cd7d5a8055e"
  },
  "full_id": "n4627695092",
  "name": "Mingmitr Coffee",
  "lat": "18.82943",
  "long": "99.01266"
},{
  "_id": {
    "$oid": "6216745c4a0d2cd7d5a8055f"
  },
  "full_id": "n4636802719",
  "name": "Es'satto Coffee",
  "lat": "18.76172",
  "long": "99.04173"
},{
  "_id": {
    "$oid": "6216745c4a0d2cd7d5a80560"
  },
  "full_id": "n4641683190",
  "name": "ชีวิตคนธรรมดา",
  "lat": "18.79446",
  "long": "98.97332"
},{
  "_id": {
    "$oid": "6216745c4a0d2cd7d5a80561"
  },
  "full_id": "n4655307491",
  "name": "Rakuda",
  "lat": "18.79067",
  "long": "98.98424"
},{
  "_id": {
    "$oid": "6216745c4a0d2cd7d5a80562"
  },
  "full_id": "n4691707613",
  "name": "Green Cup",
  "lat": "18.76563",
  "long": "98.99192"
},{
  "_id": {
    "$oid": "6216745c4a0d2cd7d5a80563"
  },
  "full_id": "n4694698200",
  "name": "More Fresh",
  "lat": "18.73002",
  "long": "99.10949"
},{
  "_id": {
    "$oid": "6216745c4a0d2cd7d5a80564"
  },
  "full_id": "n4711076389",
  "name": "Coffee Addict",
  "lat": "18.79223",
  "long": "98.97852"
},{
  "_id": {
    "$oid": "6216745c4a0d2cd7d5a80565"
  },
  "full_id": "n4725230318",
  "name": "Saha Coffee",
  "lat": "18.75608",
  "long": "99.05094"
},{
  "_id": {
    "$oid": "6216745c4a0d2cd7d5a80566"
  },
  "full_id": "n4728841092",
  "name": "Thap - Rim - Than",
  "lat": "18.89913",
  "long": "98.86519"
},{
  "_id": {
    "$oid": "6216745c4a0d2cd7d5a80567"
  },
  "full_id": "n4730080789",
  "name": "Viya",
  "lat": "18.78961",
  "long": "98.98356"
},{
  "_id": {
    "$oid": "6216745c4a0d2cd7d5a80568"
  },
  "full_id": "n4733771823",
  "name": "Taan Joa Khun Coffee",
  "lat": "19.91892",
  "long": "99.21269"
},{
  "_id": {
    "$oid": "6216745c4a0d2cd7d5a80569"
  },
  "full_id": "n4744942856",
  "name": "Barefoot Café",
  "lat": "18.80988",
  "long": "98.96228"
},{
  "_id": {
    "$oid": "6216745c4a0d2cd7d5a8056a"
  },
  "full_id": "n4748011323",
  "name": "Fruiturday",
  "lat": "18.78792",
  "long": "98.99268"
},{
  "_id": {
    "$oid": "6216745c4a0d2cd7d5a8056b"
  },
  "full_id": "n4752385436",
  "name": "กาแฟสดสังคม",
  "lat": "18.8028",
  "long": "98.94962"
},{
  "_id": {
    "$oid": "6216745c4a0d2cd7d5a8056c"
  },
  "full_id": "n4761003587",
  "name": "Zaap C U Cafe",
  "lat": "18.76346",
  "long": "99.00834"
},{
  "_id": {
    "$oid": "6216745c4a0d2cd7d5a8056d"
  },
  "full_id": "n4763900042",
  "name": "Coffee & Me",
  "lat": "18.75698",
  "long": "99.00081"
},{
  "_id": {
    "$oid": "6216745c4a0d2cd7d5a8056e"
  },
  "full_id": "n4786026322",
  "name": "Moca Coffee",
  "lat": "19.10573",
  "long": "98.93681"
},{
  "_id": {
    "$oid": "6216745c4a0d2cd7d5a8056f"
  },
  "full_id": "n4792155522",
  "name": "ไก่ทอด​เที่ยงคืน",
  "lat": "18.78005",
  "long": "98.99811"
},{
  "_id": {
    "$oid": "6216745c4a0d2cd7d5a80570"
  },
  "full_id": "n4796690555",
  "name": "Fresher Juice Bar",
  "lat": "18.78346",
  "long": "99.0057"
},{
  "_id": {
    "$oid": "6216745c4a0d2cd7d5a80571"
  },
  "full_id": "n4797812722",
  "name": "Acaba Coffee Roastery",
  "lat": "18.85906",
  "long": "99.27524"
},{
  "_id": {
    "$oid": "6216745c4a0d2cd7d5a80572"
  },
  "full_id": "n4811280524",
  "name": "Art Roastery Huay Kaew",
  "lat": "18.80644",
  "long": "98.95747"
},{
  "_id": {
    "$oid": "6216745c4a0d2cd7d5a80573"
  },
  "full_id": "n4820434529",
  "name": "Vigie Sist Cafe",
  "lat": "18.79219",
  "long": "98.99017"
},{
  "_id": {
    "$oid": "6216745c4a0d2cd7d5a80574"
  },
  "full_id": "n4867436723",
  "name": "Huan Hom Rada",
  "lat": "18.64507",
  "long": "98.69757"
},{
  "_id": {
    "$oid": "6216745c4a0d2cd7d5a80575"
  },
  "full_id": "n4870779121",
  "name": "art du café",
  "lat": "18.77625",
  "long": "98.99949"
},{
  "_id": {
    "$oid": "6216745c4a0d2cd7d5a80576"
  },
  "full_id": "n4879583153",
  "name": "Petit Cabane",
  "lat": "18.72092",
  "long": "98.96291"
},{
  "_id": {
    "$oid": "6216745c4a0d2cd7d5a80577"
  },
  "full_id": "n4879591522",
  "name": "สภากาแฟ(เจ้าเก่า)",
  "lat": "18.76831",
  "long": "98.99935"
},{
  "_id": {
    "$oid": "6216745c4a0d2cd7d5a80578"
  },
  "full_id": "n4880216345",
  "name": "Coffee Bee",
  "lat": "18.76958",
  "long": "98.97673"
},{
  "_id": {
    "$oid": "6216745c4a0d2cd7d5a80579"
  },
  "full_id": "n4889011525",
  "name": "Coffee or Me",
  "lat": "18.82027",
  "long": "98.95124"
},{
  "_id": {
    "$oid": "6216745c4a0d2cd7d5a8057a"
  },
  "full_id": "n4893144721",
  "name": "Yellow Crafts",
  "lat": "18.7893",
  "long": "98.96448"
},{
  "_id": {
    "$oid": "6216745c4a0d2cd7d5a8057b"
  },
  "full_id": "n4905277321",
  "name": "Fresh& Mild",
  "lat": "18.79148",
  "long": "98.9748"
},{
  "_id": {
    "$oid": "6216745c4a0d2cd7d5a8057c"
  },
  "full_id": "n4961026130",
  "name": "Brown Rice Organic Cafe",
  "lat": "18.78844",
  "long": "98.98258"
},{
  "_id": {
    "$oid": "6216745c4a0d2cd7d5a8057d"
  },
  "full_id": "n4963189664",
  "name": "Bon Bon Cafe",
  "lat": "18.73398",
  "long": "98.957"
},{
  "_id": {
    "$oid": "6216745c4a0d2cd7d5a8057e"
  },
  "full_id": "n4995205024",
  "name": "ร้านหุ้มเบาะ",
  "lat": "18.79726",
  "long": "98.98984"
},{
  "_id": {
    "$oid": "6216745c4a0d2cd7d5a8057f"
  },
  "full_id": "n5009187333",
  "name": "Rx Cafe",
  "lat": "18.81614",
  "long": "98.98049"
},{
  "_id": {
    "$oid": "6216745c4a0d2cd7d5a80580"
  },
  "full_id": "n5021459625",
  "name": "Vegetarian mountain",
  "lat": "18.76486",
  "long": "98.87569"
},{
  "_id": {
    "$oid": "6216745c4a0d2cd7d5a80581"
  },
  "full_id": "n5076571309",
  "name": "Chill & View Cafe",
  "lat": "19.37248",
  "long": "99.20481"
},{
  "_id": {
    "$oid": "6216745c4a0d2cd7d5a80582"
  },
  "full_id": "n5132374224",
  "name": "Caffeine No. 5 Coffee",
  "lat": "18.78694",
  "long": "99.01012"
},{
  "_id": {
    "$oid": "6216745c4a0d2cd7d5a80583"
  },
  "full_id": "n5141991928",
  "name": "Coffee shop",
  "lat": "18.83791",
  "long": "99.00007"
},{
  "_id": {
    "$oid": "6216745c4a0d2cd7d5a80584"
  },
  "full_id": "n5160870421",
  "name": "Farm Kid Cafe",
  "lat": "18.80047",
  "long": "99.01326"
},{
  "_id": {
    "$oid": "6216745c4a0d2cd7d5a80585"
  },
  "full_id": "n5185937222",
  "name": "Coffee Point Changmai",
  "lat": "18.78107",
  "long": "98.99607"
},{
  "_id": {
    "$oid": "6216745c4a0d2cd7d5a80586"
  },
  "full_id": "n5187642722",
  "name": "คาเฟ่ อิน ไวด์",
  "lat": "19.22522",
  "long": "98.8149"
},{
  "_id": {
    "$oid": "6216745c4a0d2cd7d5a80587"
  },
  "full_id": "n5195686872",
  "name": "Ducky Coffee",
  "lat": "18.89615",
  "long": "99.04342"
},{
  "_id": {
    "$oid": "6216745c4a0d2cd7d5a80588"
  },
  "full_id": "n5201216548",
  "name": "Fieow Coffee Room",
  "lat": "18.75473",
  "long": "99.00859"
},{
  "_id": {
    "$oid": "6216745c4a0d2cd7d5a80589"
  },
  "full_id": "n5202076922",
  "name": "Taste Cafe",
  "lat": "18.79517",
  "long": "98.96309"
},{
  "_id": {
    "$oid": "6216745c4a0d2cd7d5a8058a"
  },
  "full_id": "n5207438911",
  "name": "Homglai",
  "lat": "18.76104",
  "long": "99.01824"
},{
  "_id": {
    "$oid": "6216745c4a0d2cd7d5a8058b"
  },
  "full_id": "n5221139063",
  "name": "Delicafe",
  "lat": "18.76266",
  "long": "99.02307"
},{
  "_id": {
    "$oid": "6216745c4a0d2cd7d5a8058c"
  },
  "full_id": "n5231429625",
  "name": "Gold land coffe",
  "lat": "18.7877",
  "long": "98.99758"
},{
  "_id": {
    "$oid": "6216745c4a0d2cd7d5a8058d"
  },
  "full_id": "n5234546423",
  "name": "บ้านนายวิฑูรย์ ส่องแสง",
  "lat": "18.82163",
  "long": "98.94973"
},{
  "_id": {
    "$oid": "6216745c4a0d2cd7d5a8058e"
  },
  "full_id": "n5269068736",
  "name": "Gafre Café",
  "lat": "19.92088",
  "long": "99.2128"
},{
  "_id": {
    "$oid": "6216745c4a0d2cd7d5a8058f"
  },
  "full_id": "n5271206421",
  "name": "อาคาร ภราดร",
  "lat": "18.75209",
  "long": "98.96574"
},{
  "_id": {
    "$oid": "6216745c4a0d2cd7d5a80590"
  },
  "full_id": "n5272840682",
  "name": "Café de Mountain",
  "lat": "18.85441",
  "long": "98.7003"
},{
  "_id": {
    "$oid": "6216745c4a0d2cd7d5a80591"
  },
  "full_id": "n5273131423",
  "name": "Chai Coffee",
  "lat": "19.39749",
  "long": "98.93027"
},{
  "_id": {
    "$oid": "6216745c4a0d2cd7d5a80592"
  },
  "full_id": "n5274894622",
  "name": "ลานจอดรถ DTAC",
  "lat": "18.79665",
  "long": "99.02501"
},{
  "_id": {
    "$oid": "6216745c4a0d2cd7d5a80593"
  },
  "full_id": "n5276808922",
  "name": "สหภาพกระต่าย",
  "lat": "18.74273",
  "long": "98.92448"
},{
  "_id": {
    "$oid": "6216745c4a0d2cd7d5a80594"
  },
  "full_id": "n5287018021",
  "name": "Khun Kae's Juice Bar",
  "lat": "18.79281",
  "long": "98.99165"
},{
  "_id": {
    "$oid": "6216745c4a0d2cd7d5a80595"
  },
  "full_id": "n5293932211",
  "name": "Earth Home Cafe",
  "lat": "19.21543",
  "long": "99.0089"
},{
  "_id": {
    "$oid": "6216745c4a0d2cd7d5a80596"
  },
  "full_id": "n5313364621",
  "name": "Marche Dome",
  "lat": "18.72816",
  "long": "98.9453"
},{
  "_id": {
    "$oid": "6216745c4a0d2cd7d5a80597"
  },
  "full_id": "n5313364622",
  "name": "Sweet a Bit Cake",
  "lat": "18.73062",
  "long": "98.94239"
},{
  "_id": {
    "$oid": "6216745c4a0d2cd7d5a80598"
  },
  "full_id": "n5313364627",
  "name": "Danissa Bakery & Cafe",
  "lat": "18.73098",
  "long": "98.94188"
},{
  "_id": {
    "$oid": "6216745c4a0d2cd7d5a80599"
  },
  "full_id": "n5327328688",
  "name": "Wish and Whisk",
  "lat": "18.91083",
  "long": "98.92163"
},{
  "_id": {
    "$oid": "6216745c4a0d2cd7d5a8059a"
  },
  "full_id": "n5338188740",
  "name": "Cafe Amazon",
  "lat": "18.84624",
  "long": "99.07948"
},{
  "_id": {
    "$oid": "6216745c4a0d2cd7d5a8059b"
  },
  "full_id": "n5340666521",
  "name": "สวนไอเบอร์รี่",
  "lat": "18.79385",
  "long": "98.96918"
},{
  "_id": {
    "$oid": "6216745c4a0d2cd7d5a8059c"
  },
  "full_id": "n5344068322",
  "name": "Harinezumi Hedgehog Cafe",
  "lat": "18.78112",
  "long": "98.9962"
},{
  "_id": {
    "$oid": "6216745c4a0d2cd7d5a8059d"
  },
  "full_id": "n5346609684",
  "name": "Coffee Shop",
  "lat": "18.7946",
  "long": "98.95114"
},{
  "_id": {
    "$oid": "6216745c4a0d2cd7d5a8059e"
  },
  "full_id": "n5346617694",
  "name": "Moo Coffee",
  "lat": "18.79325",
  "long": "98.95741"
},{
  "_id": {
    "$oid": "6216745c4a0d2cd7d5a8059f"
  },
  "full_id": "n5346617708",
  "name": "Fresh & Mild",
  "lat": "18.79368",
  "long": "98.95707"
},{
  "_id": {
    "$oid": "6216745c4a0d2cd7d5a805a0"
  },
  "full_id": "n5346617710",
  "name": "ฮิมตาง คาเฟ่",
  "lat": "18.79392",
  "long": "98.95683"
},{
  "_id": {
    "$oid": "6216745c4a0d2cd7d5a805a1"
  },
  "full_id": "n5346617712",
  "name": "มิกุชา",
  "lat": "18.79383",
  "long": "98.95693"
},{
  "_id": {
    "$oid": "6216745c4a0d2cd7d5a805a2"
  },
  "full_id": "n5348338286",
  "name": "Cafe Amazon",
  "lat": "18.79473",
  "long": "99.03606"
},{
  "_id": {
    "$oid": "6216745c4a0d2cd7d5a805a3"
  },
  "full_id": "n5356035050",
  "name": "Book Cafe",
  "lat": "19.91318",
  "long": "99.20718"
},{
  "_id": {
    "$oid": "6216745c4a0d2cd7d5a805a4"
  },
  "full_id": "n5365571787",
  "name": "Jiang Dara Coffee & Tea",
  "lat": "19.36318",
  "long": "98.97508"
},{
  "_id": {
    "$oid": "6216745c4a0d2cd7d5a805a5"
  },
  "full_id": "n5374663214",
  "name": "มีใจให้มัทฉะ คาเฟ่",
  "lat": "18.78133",
  "long": "99.00129"
},{
  "_id": {
    "$oid": "6216745c4a0d2cd7d5a805a6"
  },
  "full_id": "n5375098626",
  "name": "Ganesh Cafe",
  "lat": "18.80129",
  "long": "99.01615"
},{
  "_id": {
    "$oid": "6216745c4a0d2cd7d5a805a7"
  },
  "full_id": "n5385230108",
  "name": "Zen Tea Time",
  "lat": "19.34159",
  "long": "98.96008"
},{
  "_id": {
    "$oid": "6216745c4a0d2cd7d5a805a8"
  },
  "full_id": "n5405123023",
  "name": "Black Canyon Coffee",
  "lat": "18.78933",
  "long": "99.02549"
},{
  "_id": {
    "$oid": "6216745c4a0d2cd7d5a805a9"
  },
  "full_id": "n5426264832",
  "name": "Café",
  "lat": "18.8105",
  "long": "98.94878"
},{
  "_id": {
    "$oid": "6216745c4a0d2cd7d5a805aa"
  },
  "full_id": "n5439223989",
  "name": "อินทนนท์ กาแฟ",
  "lat": "18.74434",
  "long": "98.99137"
},{
  "_id": {
    "$oid": "6216745c4a0d2cd7d5a805ab"
  },
  "full_id": "n5444250499",
  "name": "Rock & Loft Cafe",
  "lat": "18.72033",
  "long": "99.15318"
},{
  "_id": {
    "$oid": "6216745c4a0d2cd7d5a805ac"
  },
  "full_id": "n5455786827",
  "name": "Café Amazon",
  "lat": "18.76838",
  "long": "98.98371"
},{
  "_id": {
    "$oid": "6216745c4a0d2cd7d5a805ad"
  },
  "full_id": "n5480647765",
  "name": "SnoozeChaingmai",
  "lat": "18.77961",
  "long": "99.00275"
},{
  "_id": {
    "$oid": "6216745c4a0d2cd7d5a805ae"
  },
  "full_id": "n5519849098",
  "name": "baan bond cafe",
  "lat": "18.73566",
  "long": "98.99343"
},{
  "_id": {
    "$oid": "6216745c4a0d2cd7d5a805af"
  },
  "full_id": "n5545281420",
  "name": "Blue Star Coffee",
  "lat": "18.78407",
  "long": "98.99789"
},{
  "_id": {
    "$oid": "6216745c4a0d2cd7d5a805b0"
  },
  "full_id": "n5558856823",
  "name": "Wake Up Coffee",
  "lat": "18.79607",
  "long": "98.98164"
},{
  "_id": {
    "$oid": "6216745c4a0d2cd7d5a805b1"
  },
  "full_id": "n5558883026",
  "name": "Wake Up Coffee",
  "lat": "18.80731",
  "long": "98.95722"
},{
  "_id": {
    "$oid": "6216745c4a0d2cd7d5a805b2"
  },
  "full_id": "n5559133022",
  "name": "Pizza and Cafè",
  "lat": "20.06801",
  "long": "99.45677"
},{
  "_id": {
    "$oid": "6216745c4a0d2cd7d5a805b3"
  },
  "full_id": "n5583840795",
  "name": "Field Good",
  "lat": "18.74864",
  "long": "98.88664"
},{
  "_id": {
    "$oid": "6216745c4a0d2cd7d5a805b4"
  },
  "full_id": "n5583840796",
  "name": "The Horse Barn",
  "lat": "18.74652",
  "long": "98.88646"
},{
  "_id": {
    "$oid": "6216745c4a0d2cd7d5a805b5"
  },
  "full_id": "n5585615822",
  "name": "HP House Cafe",
  "lat": "18.7857",
  "long": "98.98483"
},{
  "_id": {
    "$oid": "6216745c4a0d2cd7d5a805b6"
  },
  "full_id": "n5593553723",
  "name": "Tenten",
  "lat": "18.78164",
  "long": "98.98242"
},{
  "_id": {
    "$oid": "6216745c4a0d2cd7d5a805b7"
  },
  "full_id": "n5621081721",
  "name": "Mana Café",
  "lat": "18.79523",
  "long": "98.98718"
},{
  "_id": {
    "$oid": "6216745c4a0d2cd7d5a805b8"
  },
  "full_id": "n5623443421",
  "name": "Fact Café",
  "lat": "18.79338",
  "long": "98.98745"
},{
  "_id": {
    "$oid": "6216745c4a0d2cd7d5a805b9"
  },
  "full_id": "n5694469226",
  "name": "Smoothie shop",
  "lat": "18.7872",
  "long": "98.98813"
},{
  "_id": {
    "$oid": "6216745c4a0d2cd7d5a805ba"
  },
  "full_id": "n5758046621",
  "name": "CoolMuang",
  "lat": "18.78845",
  "long": "98.99312"
},{
  "_id": {
    "$oid": "6216745c4a0d2cd7d5a805bb"
  },
  "full_id": "n5772570728",
  "name": "หมาใจดำ",
  "lat": "18.76571",
  "long": "99.10909"
},{
  "_id": {
    "$oid": "6216745c4a0d2cd7d5a805bc"
  },
  "full_id": "n5824770353",
  "name": "Taking lunch",
  "lat": "18.22266",
  "long": "98.48217"
},{
  "_id": {
    "$oid": "6216745c4a0d2cd7d5a805bd"
  },
  "full_id": "n5880381785",
  "name": "Wong Sa Korn Acres",
  "lat": "18.79178",
  "long": "99.00384"
},{
  "_id": {
    "$oid": "6216745c4a0d2cd7d5a805be"
  },
  "full_id": "n5907575285",
  "name": "Egg Coffee Chiang Mai",
  "lat": "18.78231",
  "long": "98.98979"
},{
  "_id": {
    "$oid": "6216745c4a0d2cd7d5a805bf"
  },
  "full_id": "n5915461228",
  "name": "A.B.C.D.",
  "lat": "18.79637",
  "long": "98.97682"
},{
  "_id": {
    "$oid": "6216745c4a0d2cd7d5a805c0"
  },
  "full_id": "n5917955982",
  "name": "Posrest",
  "lat": "18.79478",
  "long": "98.96494"
},{
  "_id": {
    "$oid": "6216745c4a0d2cd7d5a805c1"
  },
  "full_id": "n5919670289",
  "name": "ZMOY",
  "lat": "18.79346",
  "long": "98.99041"
},{
  "_id": {
    "$oid": "6216745c4a0d2cd7d5a805c2"
  },
  "full_id": "n5923928435",
  "name": "How Home",
  "lat": "19.02391",
  "long": "98.87027"
},{
  "_id": {
    "$oid": "6216745c4a0d2cd7d5a805c3"
  },
  "full_id": "n5925629982",
  "name": "The Mellow",
  "lat": "18.413",
  "long": "98.70434"
},{
  "_id": {
    "$oid": "6216745c4a0d2cd7d5a805c4"
  },
  "full_id": "n5925629983",
  "name": "Youngfolk",
  "lat": "18.41496",
  "long": "98.68157"
},{
  "_id": {
    "$oid": "6216745c4a0d2cd7d5a805c5"
  },
  "full_id": "n5928090575",
  "name": "The Volcano",
  "lat": "18.79977",
  "long": "98.96788"
},{
  "_id": {
    "$oid": "6216745c4a0d2cd7d5a805c6"
  },
  "full_id": "n5933370530",
  "name": "The Barisotel",
  "lat": "18.79772",
  "long": "98.96793"
},{
  "_id": {
    "$oid": "6216745c4a0d2cd7d5a805c7"
  },
  "full_id": "n5933370531",
  "name": "Nowhere",
  "lat": "18.79186",
  "long": "98.99142"
},{
  "_id": {
    "$oid": "6216745c4a0d2cd7d5a805c8"
  },
  "full_id": "n5933370532",
  "name": "Maled",
  "lat": "18.78974",
  "long": "98.96238"
},{
  "_id": {
    "$oid": "6216745c4a0d2cd7d5a805c9"
  },
  "full_id": "n5933370533",
  "name": "Artisan",
  "lat": "18.77581",
  "long": "98.98202"
},{
  "_id": {
    "$oid": "6216745c4a0d2cd7d5a805ca"
  },
  "full_id": "n5933370534",
  "name": "Gateway",
  "lat": "18.78828",
  "long": "98.99609"
},{
  "_id": {
    "$oid": "6216745c4a0d2cd7d5a805cb"
  },
  "full_id": "n5933370535",
  "name": "Marocchino",
  "lat": "18.7944",
  "long": "99.00146"
},{
  "_id": {
    "$oid": "6216745c4a0d2cd7d5a805cc"
  },
  "full_id": "n5941619770",
  "name": "The Localist",
  "lat": "18.78838",
  "long": "98.994"
},{
  "_id": {
    "$oid": "6216745c4a0d2cd7d5a805cd"
  },
  "full_id": "n5941633292",
  "name": "A Day In Chiang Mai",
  "lat": "18.77682",
  "long": "98.99607"
},{
  "_id": {
    "$oid": "6216745c4a0d2cd7d5a805ce"
  },
  "full_id": "n5950919672",
  "name": "Johoney",
  "lat": "18.78914",
  "long": "99.01107"
},{
  "_id": {
    "$oid": "6216745c4a0d2cd7d5a805cf"
  },
  "full_id": "n5978043352",
  "name": "Roxpresso",
  "lat": "18.79506",
  "long": "98.96753"
},{
  "_id": {
    "$oid": "6216745c4a0d2cd7d5a805d0"
  },
  "full_id": "n5987644570",
  "name": "Khum Cafe",
  "lat": "18.78813",
  "long": "98.98838"
},{
  "_id": {
    "$oid": "6216745c4a0d2cd7d5a805d1"
  },
  "full_id": "n5994901904",
  "name": "Around 18 Grams",
  "lat": "18.78969",
  "long": "99.00205"
},{
  "_id": {
    "$oid": "6216745c4a0d2cd7d5a805d2"
  },
  "full_id": "n6014380186",
  "name": "Bunny Buns",
  "lat": "18.73508",
  "long": "98.9373"
},{
  "_id": {
    "$oid": "6216745c4a0d2cd7d5a805d3"
  },
  "full_id": "n6014750904",
  "name": "CUBE cafe",
  "lat": "18.78396",
  "long": "99.00297"
},{
  "_id": {
    "$oid": "6216745c4a0d2cd7d5a805d4"
  },
  "full_id": "n6015393595",
  "name": "Light Up Cafe",
  "lat": "18.79787",
  "long": "98.98997"
},{
  "_id": {
    "$oid": "6216745c4a0d2cd7d5a805d5"
  },
  "full_id": "n6017634609",
  "name": "Pangkhon Coffee",
  "lat": "18.78109",
  "long": "98.98592"
},{
  "_id": {
    "$oid": "6216745c4a0d2cd7d5a805d6"
  },
  "full_id": "n6018778386",
  "name": "Asaksa cafe",
  "lat": "18.7866",
  "long": "98.98606"
},{
  "_id": {
    "$oid": "6216745c4a0d2cd7d5a805d7"
  },
  "full_id": "n6021255324",
  "name": "Maetha Organic",
  "lat": "18.58739",
  "long": "99.26414"
},{
  "_id": {
    "$oid": "6216745c4a0d2cd7d5a805d8"
  },
  "full_id": "n6052670876",
  "name": "Baan Siri Coffee & Food",
  "lat": "19.80499",
  "long": "99.16792"
},{
  "_id": {
    "$oid": "6216745c4a0d2cd7d5a805d9"
  },
  "full_id": "n6062427878",
  "name": "Hug@Health",
  "lat": "18.61817",
  "long": "98.76143"
},{
  "_id": {
    "$oid": "6216745c4a0d2cd7d5a805da"
  },
  "full_id": "n6062515601",
  "name": "Between Cafe",
  "lat": "18.90746",
  "long": "98.90383"
},{
  "_id": {
    "$oid": "6216745c4a0d2cd7d5a805db"
  },
  "full_id": "n6062541948",
  "name": "Vans Coffee",
  "lat": "18.91905",
  "long": "98.91448"
},{
  "_id": {
    "$oid": "6216745c4a0d2cd7d5a805dc"
  },
  "full_id": "n6073166485",
  "name": "ลีฟฟี่กรีนส์",
  "lat": "18.83504",
  "long": "98.9748"
},{
  "_id": {
    "$oid": "6216745c4a0d2cd7d5a805dd"
  },
  "full_id": "n6077929085",
  "name": "Punspace",
  "lat": "18.79351",
  "long": "98.98669"
},{
  "_id": {
    "$oid": "6216745c4a0d2cd7d5a805de"
  },
  "full_id": "n6094446495",
  "name": "Simply Happy",
  "lat": "18.7932",
  "long": "98.9852"
},{
  "_id": {
    "$oid": "6216745c4a0d2cd7d5a805df"
  },
  "full_id": "n6109002385",
  "name": "แอนนิต้า คาเฟ่",
  "lat": "18.80335",
  "long": "98.95979"
},{
  "_id": {
    "$oid": "6216745c4a0d2cd7d5a805e0"
  },
  "full_id": "n6126618806",
  "name": "Noodle Cafe",
  "lat": "19.34127",
  "long": "99.19561"
},{
  "_id": {
    "$oid": "6216745c4a0d2cd7d5a805e1"
  },
  "full_id": "n6130405289",
  "name": "Up to Coffee",
  "lat": "18.79018",
  "long": "98.9913"
},{
  "_id": {
    "$oid": "6216745c4a0d2cd7d5a805e2"
  },
  "full_id": "n6147629598",
  "name": "Chamok",
  "lat": "19.31244",
  "long": "99.19069"
},{
  "_id": {
    "$oid": "6216745c4a0d2cd7d5a805e3"
  },
  "full_id": "n6183630217",
  "name": "Jungle View Coffee",
  "lat": "19.25857",
  "long": "98.9228"
},{
  "_id": {
    "$oid": "6216745c4a0d2cd7d5a805e4"
  },
  "full_id": "n6189013981",
  "name": "Cafe Amazon",
  "lat": "18.95759",
  "long": "98.98287"
},{
  "_id": {
    "$oid": "6216745c4a0d2cd7d5a805e5"
  },
  "full_id": "n6194136544",
  "name": "Coffee Shop",
  "lat": "19.65332",
  "long": "99.14667"
},{
  "_id": {
    "$oid": "6216745c4a0d2cd7d5a805e6"
  },
  "full_id": "n6194386786",
  "name": "Ma Mueang Win",
  "lat": "18.66127",
  "long": "98.66117"
},{
  "_id": {
    "$oid": "6216745c4a0d2cd7d5a805e7"
  },
  "full_id": "n6195852485",
  "name": "S-rong coffee",
  "lat": "18.78605",
  "long": "98.98102"
},{
  "_id": {
    "$oid": "6216745c4a0d2cd7d5a805e8"
  },
  "full_id": "n6195852585",
  "name": "Dark roast",
  "lat": "18.79438",
  "long": "98.98994"
},{
  "_id": {
    "$oid": "6216745c4a0d2cd7d5a805e9"
  },
  "full_id": "n6203233287",
  "name": "รื่นอารมย์",
  "lat": "18.78507",
  "long": "98.95327"
},{
  "_id": {
    "$oid": "6216745c4a0d2cd7d5a805ea"
  },
  "full_id": "n6212785422",
  "name": "Tip Cafe",
  "lat": "18.87844",
  "long": "99.14026"
},{
  "_id": {
    "$oid": "6216745c4a0d2cd7d5a805eb"
  },
  "full_id": "n6217907797",
  "name": "Passion Project The Café",
  "lat": "18.80128",
  "long": "98.97548"
},{
  "_id": {
    "$oid": "6216745c4a0d2cd7d5a805ec"
  },
  "full_id": "n6232754405",
  "name": "Improvise",
  "lat": "18.77703",
  "long": "99.00439"
},{
  "_id": {
    "$oid": "6216745c4a0d2cd7d5a805ed"
  },
  "full_id": "n6259342188",
  "name": "Miss Juicie",
  "lat": "18.78399",
  "long": "98.99084"
},{
  "_id": {
    "$oid": "6216745c4a0d2cd7d5a805ee"
  },
  "full_id": "n6261745827",
  "name": "Unlimit Coffee",
  "lat": "18.77523",
  "long": "98.98958"
},{
  "_id": {
    "$oid": "6216745c4a0d2cd7d5a805ef"
  },
  "full_id": "n6265198592",
  "name": "CM Smoothie House",
  "lat": "18.78297",
  "long": "98.99177"
},{
  "_id": {
    "$oid": "6216745c4a0d2cd7d5a805f0"
  },
  "full_id": "n6265220284",
  "name": "The Center Cafe",
  "lat": "18.78302",
  "long": "98.99162"
},{
  "_id": {
    "$oid": "6216745c4a0d2cd7d5a805f1"
  },
  "full_id": "n6269572491",
  "name": "ลองมองคาเฟ่",
  "lat": "18.70757",
  "long": "98.96629"
},{
  "_id": {
    "$oid": "6216745c4a0d2cd7d5a805f2"
  },
  "full_id": "n6271587867",
  "name": "ภูภัคคาเฟ่",
  "lat": "19.35847",
  "long": "99.1993"
},{
  "_id": {
    "$oid": "6216745c4a0d2cd7d5a805f3"
  },
  "full_id": "n6326937923",
  "name": "Hill Coffee",
  "lat": "18.76233",
  "long": "98.90476"
},{
  "_id": {
    "$oid": "6216745c4a0d2cd7d5a805f4"
  },
  "full_id": "n6326963011",
  "name": "เดอะ เคฟ ดอยคำ",
  "lat": "18.76006",
  "long": "98.91421"
},{
  "_id": {
    "$oid": "6216745c4a0d2cd7d5a805f5"
  },
  "full_id": "n6330472004",
  "name": "พทธรักษา",
  "lat": "18.49515",
  "long": "98.8147"
},{
  "_id": {
    "$oid": "6216745c4a0d2cd7d5a805f6"
  },
  "full_id": "n6330472006",
  "name": "Coffee Zone",
  "lat": "18.487",
  "long": "98.6723"
},{
  "_id": {
    "$oid": "6216745c4a0d2cd7d5a805f7"
  },
  "full_id": "n6371396585",
  "name": "Shade Grow Coffee",
  "lat": "18.92311",
  "long": "99.33403"
},{
  "_id": {
    "$oid": "6216745c4a0d2cd7d5a805f8"
  },