[{
  "_id": {
    "$oid": "62167ff44a0d2cd7d5a80672"
  },
  "name": "Yellow Crafts",
  "status_id": "1496480539628679173",
  "tag": "1",
  "create_at": "2022-02-23 13:42:18",
  "lat": "18.7893",
  "long": "98.96448"
},{
  "_id": {
    "$oid": "62167ff44a0d2cd7d5a80674"
  },
  "name": "Asama",
  "status_id": "1495388321232846849",
  "tag": "1",
  "create_at": "2022-02-20 13:22:13",
  "lat": "18.76502",
  "long": "98.95312"
},{
  "_id": {
    "$oid": "621a60d718b596f1b433cb7a"
  },
  "full_id": "new1",
  "name": "The Local Coffee House",
  "tag": "1",
  "lat": "18.757293348006854",
  "long": "99.05223619117112",
  "status_id": "1495319107234766851",
  "created_at": "2022-02-20 08:47:11"
},{
  "_id": {
    "$oid": "621a637918b596f1b433cb8c"
  },
  "full_id": "new2",
  "name": "KRISP CAFÃ‰",
  "tag": "1",
  "lat": "18.809258643615767",
  "long": "98.98191888029363",
  "status_id": "1495309287375003649",
  "created_at": "2022-02-20 08:08:10"
},{
  "_id": {
    "$oid": "621a677218b596f1b433cbad"
  },
  "full_id": "new4",
  "name": "carrot",
  "tag": "1",
  "lat": "18.78308357517623",
  "long": "98.9847455439886",
  "status_id": "1495596086345760771",
  "created_at": "2022-02-21 03:07:48"
},{
  "_id": {
    "$oid": "621d30cafbdf9219afa0b6b6"
  },
  "full_id": "n2105726947",
  "name": "Ristr8to",
  "tag": "1",
  "lat": "18.7991",
  "long": "98.96722",
  "status_id": "1497875288197562370",
  "create_at": "2022-02-27 10:04:32"
}]